Longitude	Latitude	REDE_GIDs	Name	Bogennummer	REDE_Namen	Sprache
6.34277	50.06311	94965	RINGHUSCHEID	10029	Ringhuscheid	1
6.58295	50.04663	95722	MALBERG	10044	Malberg	1
15.49524	53.11481	150069	NOWY KLUKOM	1009	Nowy Klukom	1
15.78185	53.08719	531796	LASKO K CHOSZCZNA	1018	Lasko K Choszczna	1
6.84042	50.09033	99147	PANTENBURG	10215	Pantenburg	1
16.08349	53.12516	159464	GOLIN	1023	Golin	1
7.07928	50.09451	97954	BEUREN	10230	Beuren	1
7.34404	50.10303	98462	MÖRSDORF	10259	Mörsdorf	1
7.633	50.12291	94920	BADENHARD	10275	Badenhard	1
16.39581	53.11234	531178	NIEKURSKO	1029	Niekursko	1
7.88739	50.1322	95227	WELTEROD	10300	Welterod	1
8.14118	50.13996	96664	BLEIDENSTADT	10315	Bleidenstadt	1
6.05347	50.20267	11144	ESPELER	10335	Espeler	1
16.63215	53.09276	376330	STOBNO	1035	Stobno	1
6.31001	50.22124	95212	BRANDSCHEID	10351	Brandscheid	1
6.55753	50.21722	97121	BÜDESHEIM	10368	Büdesheim	1
6.7955	50.23069	97404	WALDKÖNIGEN	10381	Waldkönigen	1
17.19502	53.11046	370259	KROSTKOWO	1050	Krostkowo	1
7.0778	50.26048	95268	KALENBORN	10584	Kalenborn	1
7.34445	50.2728	96687	GAPPENACH	10601	Gappenach	1
7.61816	50.28044	101126	RHENS	10621	Rhens	1
7.87712	50.29247	96321	ATTENHAUSEN	10649	Attenhausen	1
8.10998	50.31601	94966	HERINGEN	10663	Heringen	1
6.28038	50.38149	11763	HONSFELD	10690	Honsfeld	1
6.54324	50.3815	135306	DAHLEM	10697	Dahlem	1
6.80584	50.41498	95727	AREMBERG	10709	Aremberg	1
7.05945	50.41231	96260	HOHENLEIMBACH	10736	Hohenleimbach	1
8.54797	50.9931	100720	HATZFELD (EDER)	10857	Hatzfeld (Eder)	1
10.4237421	50.7188194	542256	HAINDORF	10974	Haindorf	1
18.9051	53.70548	373879	ROZPEDZINY	110	Rozpedziny	1
10.72904373	50.77061604	542173	SCHWARZWALD	11132	Schwarzwald	1
10.96938	50.75547	139789	WIPFRA	11149	Wipfra	1
11.22809	50.76235	136781	REMDA	11180	Remda	1
11.50488	50.7536	141792	ZEUTSCH	11197	Zeutsch	1
11.73363	50.77235	142209	BREITENHAIN	11212	Breitenhain	1
12.01318	50.78588	139629	BURKERSDORF	11230	Burkersdorf	1
12.24437	50.77289	139540	SEELINGSTￃﾄDT	11252	Seelingstädt	1
10.42573	50.91165	142683	SEEBACH	11262	Seebach	1
17.45996751	53.22049833	534921	DEBENKE	1133	Debenke	1
17.73634	53.22735	148600	GLISZCZ	1139	Gliszcz	1
10.68407	50.91991	138852	BOILSTￃﾄDT	11467	Boilstädt	1
10.93186	50.92027	142811	INGERSLEBEN	11485	Ingersleben	1
18.26662	53.22211	375151	CZARZE	1150	Czarze	1
11.20701	50.91984	139765	GUTENDORF	11515	Gutendorf	1
11.46177	50.93317	138476	KLEINSCHWABHAUSEN	11539	Kleinschwabhausen	1
11.74837	50.93578	136839	THALBￃﾜRGEL	11568	Thalbürgel	1
18.56976	53.2111	373923	BIELCZYNY	1157	Bielczyny	1
12.01155	50.92981	138178	BAD KￃﾖSTRITZ	11586	Bad Köstritz	1
12.26812	50.94846	141924	LUMPZIG	11607	Lumpzig	1
18.85888	53.17872	160911	SIERAKOWO	1162	Sierakowo	1
10.74168	50.23953	88799	GLEISMUTHHAUSEN	11645	Gleismuthhausen	1
11.20975	50.24786	92402	MITWITZ	11673	Mitwitz	1
10.4955	50.24929	79021	AUB	11763	Aub	1
15.50003	53.29161	147552	SOKOLINIEC	1178	Sokoliniec	1
11.00025	50.2494	85535	SEIDMANNSDORF	11805	Seidmannsdorf	1
11.47316	50.26759	81384	WALLENFELS	11825	Wallenfels	1
11.76361	50.27631	84316	NEUDORF	11844	Neudorf	1
12.0103	50.28274	87879	DRAISENDORF	11864	Draisendorf	1
12.28319	50.27688	141286	SOHL	11881	Sohl	1
10.49026	50.41091	142488	SￃﾜLZDORF	11896	Sülzdorf	1
15.85412	53.25859	370665	DEBSKO	1192	Debsko	1
10.97928	50.40853	138479	BACHFELD	11927	Bachfeld	1
16.12236	53.27292	163085	PLOCICZNO	1197	Plociczno	1
16.30259	53.26242	148733	NAKIELNO	1203	Nakielno	1
10.73533	50.42423	141347	HILDBURGHAUSEN	12037	Hildburghausen	1
11.24222	50.44197	140391	NEUENBAU	12070	Neuenbau	1
16.62174662	53.26616634	541572	WISSULKE (WIESIￃﾓￅﾁKA)	1208	Wissulke (Wiesiółka)	1
11.50062	50.42866	136850	GRUMBACH	12085	Grumbach	1
11.76687	50.44079	138073	FRￃﾖSSEN	12104	Frössen	1
12.0079	50.43389	142268	SCHWAND	12125	Schwand	1
12.28579	50.43672	140507	KOTTENGRￃﾜN	12148	Kottengrün	1
16.90232	53.26649	371585	PARUSZKA	1215	Paruszka	1
10.41715	50.57103	137045	MEININGEN	12153	Meiningen	1
10.71167	50.55906	137465	ALTENDAMBACH	12167	Altendambach	1
10.96068	50.56467	137776	ALTENFELD	12184	Altenfeld	1
11.21968	50.60225	142205	ROHRBACH	12341	Rohrbach	1
11.47786231	50.58586587	542249	ST. JACOB BEI LEUTENBERG	12371	St. Jacob bei Leutenberg	1
11.76828	50.60092	136605	NEUNDORF (BEI SCHLEIZ)	12390	Neundorf (bei Schleiz)	1
12.0133	50.59065	138329	EBERSGRￃﾜN	12410	Ebersgrün	1
12.28681029	50.61279344	542252	ROITZSCHAU/ROTSCHAU	12428	Roitzschau/Rotschau	1
11.01356	50.08352	83929	HORSDORF	12496	Horsdorf	1
11.52863	50.0917	90390	KￃﾖDNITZ	12529	Ködnitz	1
11.78865	50.09627	73525	KORNBACH	12556	Kornbach	1
12.01162	50.11446	92759	HABNITH	12572	Habnith	1
10.47912	50.0693	92995	UCHENHOFEN	12594	Uchenhofen	1
10.75411	50.07607	81117	REUTERSBRUNN	12616	Reutersbrunn	1
11.23885	50.08397	87919	WEISMAIN	12656	Weismain	1
15.56066	53.43452	375822	INSKO	1278	Insko	1
15.82821	53.44244	374696	KONOTOP	1287	Konotop	1
12.54606	50.95499	139318	LOHMA	12876	Lohma	1
12.79845622	50.93588982	542291	HEIERSDORF	12898	Heiersdorf	1
13.03963	50.94183	140816	SACHSENBURG	12921	Sachsenburg	1
13.31425	50.9658	138353	ROTHENFURTH	12942	Rothenfurth	1
16.0857	53.43147	153188	ZABIN	1296	Zabin	1
13.61631	50.94387	138765	BORLAS	12969	Borlas	1
13.85701	50.95464	140821	DOHNA	13005	Dohna	1
14.13042	50.93992	142852	PORSCHDORF	13019	Porschdorf	1
12.51314844	50.4441744	542319	MORGENRￃﾖTHE	13047	Morgenröthe	1
12.80099	50.47348	140498	RITTERSGRￃﾜN	13054	Rittersgrün	1
16.93735	53.43084	374882	KAMIEN	1315	Kamien	1
12.54046	50.61237	139321	SAUPERSDORF	13169	Saupersdorf	1
12.800879	50.61883463	542348	KￃﾜHNHEIDE	13187	Kühnheide	1
13.06058	50.62587	138641	HIMMELMￃﾜHLE	13210	Himmelmühle	1
13.30128	50.59763	139696	RￃﾜBENAU	13226	Rübenau	1
12.54647	50.76709	139438	THURM	13269	Thurm	1
12.7795	50.77904	142276	URSPRUNG	13286	Ursprung	1
15.51756	53.76575	160646	SOSNOWO	133	Sosnowo	1
13.05066	50.78027	138434	DITTMANNSDORF	13317	Dittmannsdorf	1
13.31924	50.79728	142819	GROSSHARTMANNSDORF	13340	Grosshartmannsdorf	1
13.56587	50.80319	140851	REICHENAU	13355	Reichenau	1
13.85538	50.78575	139047	LIEBENAU	13372	Liebenau	1
17.75795578	53.42095415	534933	DZIDNO	1338	Dzidno	1
15.72674275	50.77629276	542404	WANG-BRￃﾜCKENBERG	13529	Wang-Brückenberg	1
15.95486	50.78753	389165	PISARZOWICE	13543	Pisarzowice	1
16.20743	50.75691	386686	BOGUSZOW-GORCE	13559	Boguszow-Gorce	1
14.65276544	50.9556005	542439	NIEDERLEUTERSDORF/LEUTERSDORF	13655	Niederleutersdorf/Leutersdorf	1
14.90152069	50.94685019	542448	ROHNAU (-)	13678	Rohnau (-)	1
15.44277	50.95309	386289	REBISZￃﾓW	13700	Rebiszow	1
15.69243	50.94016	529888	SIEDLECIN	13719	Siedlecin	1
15.97695	50.9281	385883	MYSLOW	13727	Myslow	1
16.24996	50.94262	391578	JUGOWA	13745	Jugowa	1
16.47306	50.57075	386406	WLODOWICE	13830	Wlodowice	1
17.01494	50.57111	388750	BIERNACICE	13869	Biernacice	1
17.28777	50.56603	391919	RZYMIANY	13887	Rzymiany	1
17.54127	50.56379	388785	SZADURCZYCE	13898	Szadurczyce	1
16.75132	50.60111	390808	STOSZOWICE	13929	Stoszowice	1
16.49574	50.74669	367140	LUTOMIA GORNA	13996	Lutomia Gorna	1
16.7247	50.74663	388492	ROZTOCZNIK	14023	Roztocznik	1
15.53822	53.61301	158526	DOBIESZEWO	1403	Dobieszewo	1
16.98938	50.73384	366619	LIPOWA	14034	Lipowa	1
17.51417	50.74342	389581	MICHALOW	14074	Michalow	1
17.78334	50.70421	392718	KARCZOW	14092	Karczow	1
17.2612	50.75422	386194	JUTRZYNA	14159	Jutrzyna	1
15.82664	53.61641	375806	RYDZEWO	1417	Rydzewo	1
17.00388	50.90846	391860	BRZOZA	14234	Brzoza	1
17.27996	50.91595	388449	JACZKOWICE	14250	Jaczkowice	1
17.51786	50.89571	369484	PIASTOWICE	14275	Piastowice	1
16.5052	50.92217	392235	BOZANOW	14305	Bozanow	1
16.09713	53.5926	151328	RZEPOWO	1432	Rzepowo	1
16.75854	50.92697	385748	ROGOW SOBOCKI	14321	Rogow Sobocki	1
16.69625742	50.24949279	541497	WￃﾖLFELSDORF (WILKANￃﾓW)	14382	Wölfelsdorf (Wilkanów)	1
16.3881	53.58605	372645	LUBOWO	1442	Lubowo	1
18.02571486	50.04538313	540642	THRￃﾖM (TREBOM)	14449	Thröm (Trebom)	1
16.43333	50.40879	391058	SZCZYTNA	14458	Szczytna	1
16.73068	50.40811	388518	JASZKOWA GORNA	14471	Jaszkowa Gorna	1
17.26018	50.38899	387458	NADZIEJOW	14486	Nadziejow	1
15.86239	53.77752	373286	SMARDZKO	145	Smardzko	1
17.51572	50.40154	365314	PIORUNKOWICE	14505	Piorunkowice	1
16.64922303	53.57923598	541580	STEINFORTH (BRODￅﾹCE)	1451	Steinforth (Brodźce)	1
17.00516	50.27139	366235	BIELICE	14537	Bielice	1
19.02622	50.30465	528282	SIEMIANOWICE SLASKIE	14560	Siemianowice Slaskie	1
16.90083	53.59936	146871	WEGORZEWO SZCZECINECKIE	1461	Wegorzewo Szczecineckie	1
7.1428	49.58714	97519	NOHFELDEN	14613	Nohfelden	1
7.436449875	49.61119749	534301	ERZWEILER	14635	Erzweiler	1
7.69526	49.62895	99617	NUSSBACH	14670	Nussbach	1
7.94492	49.62669	97006	DANNENFELS	14693	Dannenfels	1
8.20454	49.63649	98182	MONSHEIM	14724	Monsheim	1
6.6329076	49.73705783	534212	SANKT MATTHIAS	14752	Sankt Matthias	1
6.89034	49.75266	97643	BESCHEID	14955	Bescheid	1
7.16681	49.75594	96587	ALLENBACH	14971	Allenbach	1
18.31669	53.6553	152200	STARA RZEKA	1499	Stara Rzeka	1
7.39191	49.77036	101007	BERSCHWEILER BEI KIRN	14999	Berschweiler bei Kirn	1
7.64796	49.7846	98789	BAD SOBERNHEIM	15018	Bad Sobernheim	1
7.92068	49.79459	98807	NEU-BAMBERG	15042	Neu-Bamberg	1
8.19083	49.80215	100524	BECHTOLSHEIM	15066	Bechtolsheim	1
6.35877	49.85133	96333	BOLLENDORF	15088	Bollendorf	1
6.62928	49.90606	99873	PREIST	15096	Preist	1
6.88064	49.90937	100611	POHLBACH	15118	Pohlbach	1
7.12694	49.9156	98569	KAUTENBACH	15137	Kautenbach	1
7.40287	49.94174	100656	KIRCHBERG (HUNSRÜCK)	15334	Kirchberg (Hunsrück)	1
7.64098	49.98645	96652	ELLERN (HUNSRÜCK)	15349	Ellern (Hunsrück)	1
21.39751921	55.00008085	541593	HEIDLAUKEN (BUGORKI)	1536	Heidlauken (Bugorki)	1
7.89616	49.96901	99926	BINGEN AM RHEIN	15365	Bingen am Rhein	1
8.1754	49.98368	94365	FINTHEN	15394	Finthen	1
21.69458052	55.04244719	534942	HEINRICHSWALDE	1540	Heinrichswalde	1
14.08782256	50.79454917	541288	SCHNEEBERG (SNￄﾚￅﾽNￃﾍK)	15418	Schneeberg (Sněžník)	1
13.57030177	50.62249964	542632	ZETTEL (SEDLO)	15503	Zettel (Sedlo)	1
21.99049945	55.02117866	522795	PAZUIZEN	1552	Pazuizen	1
13.86383504	50.62849859	542678	WISTERSCHAN (BYSTￅﾘANY)	15538	Wisterschan (Bystřany)	1
14.12005467	50.63121237	542690	MALSCHEN (MALEￄﾌOV)	15550	Malschen (Malečov)	1
14.08715095	50.50156837	542767	LUKAWETZ (LUKAVEC)	15638	Lukawetz (Lukavec)	1
22.25700873	55.00557634	522784	GIERVER LAUKEN	1565	Gierver Lauken	1
14.78356188	50.53120776	542813	NEUDORF (VRCHBￄﾚLA)	15681	Neudorf (Vrchběla)	1
14.60808505	50.45343095	542817	GASTORF (HOￅﾠTKA)	15685	Gastorf (Hoštka)	1
14.37491447	50.45239746	542822	WEGSTￃﾄDTL (ￅﾠTￄﾚTￃﾍ)	15690	Wegstädtl (Štětí)	1
22.59096608	55.07130157	522772	SCHMALLENINGKEN	1571	Schmalleningken	1
14.36367041	50.96533327	542853	NIXDORF (MIKULￃﾁￅﾠOVICE)	15725	Nixdorf (Mikulášovice)	1
19.96594881	54.93887292	541600	GROￃﾟ DIRSCHKEIM (DONSKOYE)	1573	Groß Dirschkeim (Donskoye)	1
15.17855469	50.94940265	542878	RￃﾜCKERSDORF (DOLNￃﾍ ￅﾘASNICE)	15751	Rückersdorf (Dolní Řasnice)	1
20.25705523	54.95056245	540919	RANTAU (ZAOSTROV'YE)	1578	Rantau (Zaostrov'Ye)	1
16.09538	53.76262	370788	POLCZYN-ZDROJ	158	Polczyn-Zdroj	1
20.51939251	54.91991342	541603	SCHULSTEIN (VOL'NOE)	1580	Schulstein (Vol'Noe)	1
14.37790266	50.79284652	542974	KAMNITZ-NEUDￃﾖRFL (KAMENICKￃﾁ NOVￃﾁ Vￃﾍ	15807	Kamnitz-Neudörfl (Kamenická Nová Ví	1
14.63295874	50.77707134	542975	ZWICKAU (CVIKOV)	15824	Zwickau (Cvikov)	1
14.93221691	50.77197058	542985	CHRISTOPHSGRUND (KRYￅﾠTOFOVA ￃﾚDOLￃﾍ)	15847	Christophsgrund (Kryštofova Údolí)	1
15.15829159	50.77890432	541010	GRￃﾄNZENDORF (HRANIￄﾌￃﾁ)	15858	Gränzendorf (Hraničá)	1
21.36986045	54.92959481	541608	ALT SUSIMILKEN (TARASSOWKA)	1588	Alt Susimilken (Tarassowka)	1
15.16928862	50.67533905	543079	PULETSCHNEI (PULEￄﾌNￃﾝ)	15971	Puletschnei (Pulečný)	1
14.39168331	50.63206481	543083	GRABER (KRAVAￅﾘE)	15975	Graber (Kravaře)	1
14.62813223	50.58543476	543108	THAMMￃﾜHL (STARￃﾉ SPLAVY)	15989	Thammühl (Staré Splavy)	1
14.90460482	50.62283086	543114	PROSCHWITZ (ￄﾌESKￃﾁ PROSEￄﾌ)	15995	Proschwitz (Česká Proseč)	1
15.42528858	50.77531258	543126	HARRACHSDORF (HARRACHOV)	16007	Harrachsdorf (Harrachov)	1
15.53	50.68	543132	WITKOWITZ (VÍTKOVICE)	16015	Witkowitz (Vítkovice)	1
15.69389245	50.59885819	543165	FORST (FORT)	16050	Forst (Fort)	1
15.94353338	50.59404379	543176	GABERSDORF (LIBEￄﾌ)	16063	Gabersdorf (Libeč)	1
16.19811359	50.59375748	543192	BODISCH (BOHDAￅﾠIN)	16083	Bodisch (Bohdašin)	1
15.68710662	50.45583613	543232	ZWITSCHIN (ZVIￄﾌINA)	16139	Zwitschin (Zvičina)	1
15.95476147	50.41624184	543256	GROￃﾟBOCK (VELKￃﾁ BUKOVINA)	16154	Großbock (Velká Bukovina)	1
13.05587082	50.43936341	541285	SCHMIEDEBERG (KOVￃﾁￅﾘSKￃﾁ)	16179	Schmiedeberg (Kovářská)	1
22.56764471	54.97028491	541640	TULPENINGKEN (ZAREￄﾌNOE)	1626	Tulpeningken (Zarečnoe)	1
12.57748601	50.27813882	543362	WAITZENGRￃﾜN (LOUￄﾌNￃﾁ)	16276	Waitzengrün (Loučná)	1
22.74958463	54.93330301	541641	WISBORIENEN (LIVNY)	1628	Wisborienen (Livny)	1
12.81664271	50.27172568	543381	SITTMESGRￃﾜN (MEZIROLￃﾍ)	16298	Sittmesgrün (Mezirolí)	1
13.07091971	50.29350573	543403	PETERSDORF (PETROV)	16322	Petersdorf (Petrov)	1
13.33150857	50.28046432	543417	PODLETITZ (PODLESICE)	16338	Podletitz (Podlesice)	1
12.31495822	50.12170839	545775	KROPITZ (KRAPICE)	16442	Kropitz (Krapice)	1
12.5660173	50.11207273	545875	EBERSFELD (PODLESI)	16470	Ebersfeld (Podlesi)	1
12.81723239	50.11499453	545897	RABENSGRￃﾜN (HAJE)	16491	Rabensgrün (Haje)	1
13.06282229	50.10501819	545929	LINTSCH (HLINEￄﾌ)	16523	Lintsch (Hlineč)	1
20.82988029	54.91975148	541763	POSTNICKEN (ZALIVNOE)	1654	Postnicken (Zalivnoe)	1
13.28661929	50.01766262	547005	KLOTANTSCHEN (KOTANEￄﾌ)	16602	Klotantschen (Kotaneč)	1
13.35918004	50.44766083	547083	TSCHERNOWITZ (ￄﾌERNOVICE)	16610	Tschernowitz (Černovice)	1
13.59572928	50.44732335	547097	HAWRAN (HAVRAￅﾇ)	16625	Hawran (Havraň)	1
13.83616126	50.45194726	547107	LIEBSHAUSEN (LIBￄﾌEVES)	16636	Liebshausen (Libčeves)	1
21.06375338	54.89622754	540911	LABAGIENEN/HAFFWINKEL (ZALIVINO)	1664	Labagienen/Haffwinkel (Zalivino)	1
13.74314777	50.35326555	544619	PRIESEN (BￅﾘEZNO)	16670	Priesen (Březno)	1
13.62176599	50.29310664	544637	LIBESCHITZ (LIBￄﾚￅﾠICE)	16689	Libeschitz (Liběšice)	1
13.35397155	50.12209626	544671	LESCHKAU (LEￅﾽKY)	16725	Leschkau (Ležky)	1
13.59466133	50.10758345	544773	PSCHOBLIK (PￅﾠOVLKY)	16739	Pschoblik (Pšovlky)	1
14.38722099	50.064376	544698	PRAG-SMICHOW (SMￃﾍCHOV)	16751	Prag-Smichow (Smíchov)	1
16.994619	50.411871	544699	WEIￃﾟBACH (BￃﾍLￃﾝ POTOK)	16755	Weißbach (Bílý Potok)	1
16.31555194	50.30491688	544714	SCHEDIWY (ￅﾠEDIVINY)	16770	Schediwy (Šediviny)	1
16.48013663	50.26863043	540583	FRIEDRICHSWALD (ORLICKￃﾉ ZￃﾁHOￅﾘￃﾍ)	16775	Friedrichswald (Orlické Záhoří)	1
17.24183624	50.25517092	534177	BￃﾖHMISCHDORF	16801	Böhmischdorf	1
16.46560671	50.16530112	544744	ROKITNITZ (ROKYTNICE)	16814	Rokitnitz (Rokytnice)	1
21.65075358	54.87658737	541395	KREUZINGEN (BOL'SHAKOVO)	1683	Kreuzingen (Bol'Shakovo)	1
16.71044888	50.0763027	544815	NIEDER-ULLERSDORF (DOLNￃﾍ BOￅﾘￃﾍKOVICE	16876	Nieder-Ullersdorf (Dolní Boříkovice	1
16.94591816	50.07261368	544825	HEINZENDORF (HYNￄﾌICE NAD MORAVOU)	16889	Heinzendorf (Hynčice Nad Moravou)	1
17.29069553	50.02964652	534416	KARLSDORF	16907	Karlsdorf	1
17.51227875	50.22030266	544860	KUHBERG	16932	Kuhberg	1
17.73660283	50.20995029	544873	RAUSEN (RUSￃﾍN)	16949	Rausen (Rusín)	1
21.94586611	54.83695164	541701	BUTTKUHNEN (POKROVSKOE)	1698	Buttkuhnen (Pokrovskoe)	1
17.47950091	50.0638888	547161	BREITENAU (BRETNOVￃﾁ ￅﾠIROKￃﾁ NIVA)	16991	Breitenau (Bretnová Široká Niva)	1
17.74608647	50.0470232	544917	LOBENSTEIN (ￃﾚVALNO)	17012	Lobenstein (Úvalno)	1
12.52743214	49.93203052	544930	LOHHￃﾄUSER (SLATINA)	17029	Lohhäuser (Slatina)	1
12.83308709	49.93372209	544959	DEUTSCH THOMASCHLAG (NￄﾚMECKￃﾉ DOMASL	17061	Deutsch Thomaschlag (Německé Domasl	1
13.05746787	49.93785404	544964	POLINKEN (POLￃﾍNKA)	17075	Polinken (Polínka)	1
22.22011308	54.8699569	541709	BALTRUSCHATSCHEN (JAKOVLEVO)	1708	Baltruschatschen (Jakovlevo)	1
12.56427266	49.7720973	540726	ALBERSDORF (PￃﾍSAￅﾘOVA VESCE)	17138	Albersdorf (Písařova Vesce)	1
12.78758496	49.78516666	534185	DAMNAU	17151	Damnau	1
13.12137244	49.77832844	545061	PIWANA (PIￅﾇOVANY)	17174	Piwana (Piňovany)	1
13.31836954	49.7932149	545065	KOTTIKEN (CHOTￃﾍKOV)	17178	Kottiken (Chotíkov)	1
12.59263476	49.63101848	545130	DIANABERG (DIANA)	17244	Dianaberg (Diana)	1
12.83611997	49.61401094	545150	WIEDLITZ (VIDICE)	17266	Wiedlitz (Vidice)	1
13.06318469	49.63824558	545157	HONOSITZ (HONEZOVICE)	17273	Honositz (Honezovice)	1
13.29099949	49.65550872	545165	DOBRZAN (DOBￅﾘANY)	17281	Dobrzan (Dobřany)	1
12.99003795	49.5009234	545187	BLISOWA (BLￃﾍￅﾽEJOV)	17306	Blisowa (Blížejov)	1
16.39993838	49.94474447	534524	HILBETEN	17309	Hilbeten	1
16.70920166	49.91307027	545200	SCHￃﾖNWALD (STRￃﾁￅﾽNￃﾁ)	17325	Schönwald (Strážná)	1
19.98061971	54.80011714	541735	ROTTENEN (RAKTINO)	1733	Rottenen (Raktino)	1
17.02418646	49.91272165	545239	OBER-ULLISCHEN (HORNￃﾍ OLEￅﾠNￃﾁ)	17374	Ober-Ullischen (Horní Olešná)	1
17.21258288	49.90928348	545250	BERGSTADT (HORNￃﾍ MￄﾚSTO)	17389	Bergstadt (Horní Město)	1
20.16992129	54.80001676	541741	POJERSTIETEN (KOLODCY)	1741	Pojerstieten (Kolodcy)	1
16.69330997	49.75727865	545300	RANIGSDORF (LINHARTICE)	17433	Ranigsdorf (Linhartice)	1
16.92061223	49.77656682	545309	MￃﾜGLITZ (MOHELNICE)	17442	Müglitz (Mohelnice)	1
17.19747408	49.76489875	545324	RIBNIK (RYBNIￄﾌEK)	17460	Ribnik (Rybniček)	1
16.41268819	49.73996807	545331	STANGENDORF (VENDOLￃﾍ)	17468	Stangendorf (Vendolí)	1
20.50003508	54.76991096	541746	BEYDRITTEN (PERVOMAJSKIJ)	1747	Beydritten (Pervomajskij)	1
16.46388	49.64357938	545361	NEU-BIELA (LAVIￄﾌNￃﾉ)	17504	Neu-Biela (Lavičné)	1
16.60789251	49.63015779	545378	SCHLETTAU (SLATINA)	17512	Schlettau (Slatina)	1
16.87865364	49.57204105	534688	RUNARZ (RUNￃﾁￅﾘOV)	17520	Runarz	1
17.177449	49.571549	540668	NEBOTEIN (HNￄﾔVOTￃﾍN)	17521	Nebotein (Hnĕvotín)	1
17.42874992	49.89452106	545414	TILLENDORF (TYLOV)	17568	Tillendorf (Tylov)	1
20.77992635	54.78017981	541755	BRASDORF (ANTONOVKA)	1758	Brasdorf (Antonovka)	1
17.70804928	49.89871152	545434	MLADETZKO (MLADECKO)	17585	Mladetzko (Mladecko)	1
17.46310188	49.73079462	545479	SEIBERSDORF (BￄﾚLￃﾁ)	17643	Seibersdorf (Bělá)	1
17.6829573	49.73318935	545492	BERNHAU (BARNOV)	17659	Bernhau (Barnov)	1
17.97308317	49.70909491	534435	KLANTENDORF	17680	Klantendorf	1
18.132408	49.68902075	545516	ENGELSWALD (MOￅﾠNOV)	17687	Engelswald (Mošnov)	1
17.39883118	49.60097829	545524	NIRKLOWITZ (MRSKLESY)	17698	Nirklowitz (Mrsklesy)	1
17.68215393	49.60602071	545541	PUNKENDORF (BOￅﾇKOV)	17713	Punkendorf (Boňkov)	1
21.08440964	54.75089788	541782	GROￃﾟ GOLDBACH (SLAVINSK)	1772	Groß Goldbach (Slavinsk)	1
17.89790677	49.58061423	545552	HALBENDORF (POLOUVSￃﾍ)	17726	Halbendorf (Polouvsí)	1
18.10923581	49.56425845	540974	SENFTLEBEN (ￅﾽENKLAVA)	17737	Senftleben (Ženklava)	1
19.326	49.98619	387377	POLANKA WIELKA	-17739	Polanka Wielka	1
19.28507	49.87652	390916	BULOWICE	-17744	Bulowice	1
19.45265	49.87403	389479	CHOCZNIA	-17746	Chocznia	1
18.99999994	49.82000004	540730	ALT-BIELITZ (STARE BIELESKO)	-17749	Alt-Bielitz (Stare Bielesko)	1
12.80409953	49.46044599	545576	LINZ (MLￃﾝNEC)	17759	Linz (Mlýnec)	1
13.091469	49.28078338	545598	KOHLHEIM (UHLIￅﾠTￄﾚ)	17782	Kohlheim (Uhliště)	1
13.30276094	49.26612249	545607	ￄﾌACHRAU (ￄﾌACHROV)	17792	Čachrau (Čachrov)	1
13.33062137	49.12628901	545628	HURKENTAL (HￅﾮRKA)	17801	Hurkental (Hůrka)	1
13.57753261	49.12042561	545650	ROTSAIFEN (ￄﾌERVENￃﾁ)	17824	Rotsaifen (Červená)	1
13.78390364	49.05868188	540811	WINTERBERG (VIMBERK)	17832	Winterberg (Vimberk)	1
15.64233287	49.62987755	540957	SEHRLENZ (ￅﾽDￃﾍREC)	17843	Sehrlenz (Ždírec)	1
15.46916346	49.43296588	540901	IRSCHING (JIￅﾘￃﾍN)	17854	Irsching (Jiřín)	1
15.63065627	49.43386003	540967	HILBERSDORF (JIHLAVA-HEROLTICE)	17862	Hilbersdorf (Jihlava-Heroltice)	1
15.48846857	49.33208877	545689	SOLLOWITZ (SALAVICE)	17876	Sollowitz (Salavice)	1
15.58516769	49.28224193	545691	STANNERN (STONAￅﾘOV)	17878	Stannern (Stonařov)	1
14.95990581	49.21963599	545693	RIEGERSCHLAG (LODHￃﾉￅﾘOV)	17881	Riegerschlag (Lodhéřov)	1
15.002329	49.202983	540970	WENKERSCHLAG (DOLNￃﾍ RADOUￅﾇ)	17882	Wenkerschlag (Dolní Radouň)	1
14.95741261	49.13556567	545696	BUCHEN (BUK)	17884	Buchen (Buk)	1
15.12750069	49.11172776	545706	HOSTERSCHLAG (ￄﾌLUNEK)	17895	Hosterschlag (Člunek)	1
15.35769926	49.08701313	545709	LIPOLZ (LIPOLEC)	17898	Lipolz (Lipolec)	1
16.63439555	49.18723537	545741	CZERNOWITZ (ￄﾌERNOVICE)	17940	Czernowitz (Černovice)	1
16.90652995	49.21777218	545743	GUNDRUM (KOMOￅﾘANY)	17942	Gundrum (Komořany)	1
16.48229302	49.05485994	545755	PRAHLITZ (PRAVLOV)	17956	Prahlitz (Pravlov)	1
16.60669491	49.05257221	545760	WOIKOWITZ (VOJKOVICE)	17961	Woikowitz (Vojkovice)	1
20.40843205	49.38054456	547187	SUB-LECHNITZ (LECHNICA)	17967	Sub-Lechnitz (Lechnica)	1
20.49157246	49.26407216	545764	TOPPORTZ (TOPOREC)	17968	Topportz (Toporec)	1
20.73249786	49.29620693	545767	HOBGARD (CHMEￄﾽNICA)	17972	Hobgard (Chmeľnica)	1
20.26734886	49.1223043	547189	NEU WALDDORF (NOVￃﾁ LESNￃﾁ)	17981	Neu Walddorf (Nová Lesná)	1
20.4730914	49.08532369	547202	DURELSDORF (TVAROￅﾽNￃﾁ)	17993	Durelsdorf (Tvarožná)	1
20.58848476	49.02564128	547208	LEUTSCHAU (LEVOￄﾌA)	17999	Leutschau (Levoča)	1
16.69276	53.74786	161335	GALOWO	180	Galowo	1
20.56768978	48.94297995	547205	ZIPSER NEUDORF (SPIￅﾠSKￃﾁ NOVￃﾁ VES)	18000	Zipser Neudorf (Spišská Nová Ves)	1
20.62	48.84	547213	WAGENDRÜSSEL (NÁLEPKOVO)	18001	Wagendrüssel (Nálepkovo)	1
20.93372629	48.85146308	547212	GￃﾖLLNITZ (GELNICA)	18003	Göllnitz (Gelnica)	1
20.36687276	48.8196973	547211	DOBSCHAU (DOBￅﾠINￃﾁ)	18004	Dobschau (Dobšiná)	1
20.74010208	48.73016195	547215	SCHMￃﾖLLNITZ (SMOLNￃﾍK)	-18008	Schmöllnitz (Smolník)	1
20.90633397	48.71071744	547217	METZENSEIFEN (MEDZEV)	18010	Metzenseifen (Medzev)	1
13.59260046	48.96730053	547220	BUCHWALD (BUￄﾌINA)	18013	Buchwald (Bučina)	1
13.79494123	48.94551277	547227	SCHATTAWA (ZￃﾁTON)	18018	Schattawa (Záton)	1
14.10381253	48.94718523	547235	ZABORSCH (ZￃﾁHORￃﾍ)	18028	Zaborsch (Záhorí)	1
13.87892421	48.81591509	547295	HIRSCHBERGEN (HIRￅﾠPERKY/JELENI)	18058	Hirschbergen (Hiršperky/Jeleni)	1
14.0740231	48.78213936	547300	HONETSCHLAG (HODￅﾇOV)	18064	Honetschlag (Hodňov)	1
13.84145	48.60522	10301	KOLLERSCHLAG	18091	Kollerschlag	1
14.10455829	48.64006942	547504	SANKT THOMA (SVATￃﾝ TOMￃﾁￅﾠ)	18095	Sankt Thoma (Svatý Tomáš)	1
14.31207319	48.6157219	547512	HOHENFURTH (VYￅﾠￅﾠￃﾍ BROD)	18101	Hohenfurth (Vyšší Brod)	1
14.42805572	48.93731559	547555	HUMMELN (HOMOLE)	18132	Hummeln (Homole)	1
14.53884842	48.99293587	547559	RUDOLFSTADT (RUDOLFOV)	18135	Rudolfstadt (Rudolfov)	1
15.12159	48.9312	6784	GROSS-RADISCHEN	18144	Gross-Radischen	1
14.35130255	48.78070398	547572	PRIETHAL (PRￃﾍDOLￃﾍ)	18188	Priethal (Prídolí)	1
14.62222893	48.76157409	547574	GOLLNETSCHLAG (KLENￃﾍ)	18192	Gollnetschlag (Klení)	1
14.86460492	48.79093469	547583	WEISSENBACH (VYSNￃﾉ)	18210	Weissenbach (Vysné)	1
15.11402	48.77595	1825	LANGSCHWARZA	18218	Langschwarza	1
22.5167	54.8167	541836	RUDSZEN (POLTAVSKOE)	1829	Rudszen (Poltavskoe)	1
14.60020725	48.61371164	547611	UNTERWALD	18290	Unterwald	1
14.8248	48.62922	1213	BAD GROSSPERTHOLZ	18296	Bad Grosspertholz	1
15.1154	48.63319	9109	OBERSTRAHLBACH	18310	Oberstrahlbach	1
15.35237	48.93926	8215	WALDKIRCHEN	18359	Waldkirchen	1
15.61331894	48.93919862	547669	HAFNERLUDEN (LUBNICE)	18364	Hafnerluden (Lubnice)	1
15.84398284	48.93495691	540964	SCHILTERN (ￅﾠTￃﾍTARY)	18367	Schiltern (Štítary)	1
16.15731666	48.88788008	547920	TￃﾖSTITZ (TￄﾚￅﾠETICE)	18407	Töstitz (Těšetice)	1
22.81669606	54.80000132	541847	WARUPￃﾖNEN (FￃﾋDOROVKA)	1842	Warupönen (Fëdorovka)	1
15.3815	48.79309	8704	DIETMANNS	18432	Dietmanns	1
15.63866	48.77886	6309	SCHIRMANNSREITH	18441	Schirmannsreith	1
15.90257	48.77849	1855	HOFERN	18454	Hofern	1
16.96984	53.75059	158846	JELNIA	185	Jelnia	1
16.13160996	48.7465636	547955	GERSTENFELD (JEￄﾌMENIￅﾠTￄﾚ)	18508	Gerstenfeld (Ječmeniště)	1
15.39468	48.61876	2862	FRANZEN	18525	Franzen	1
15.63736	48.62925	7482	ROSENBURG	18534	Rosenburg	1
15.84912	48.58705	6575	OBERDÜRNBACH	18554	Oberdürnbach	1
16.09658	48.58647	6083	ASPERSDORF	18559	Aspersdorf	1
16.37348031	48.91950827	547963	DAMNITZ (DAMNICE)	18607	Damnitz (Damnice)	1
16.65177623	48.90542723	548003	TRACHT (STRACHOTￃﾍN)	18627	Tracht (Strachotín)	1
16.76723342	48.8738553	548013	SAITZ (ZAJECￃﾍ)	18637	Saitz (Zajecí)	1
16.38060332	48.75125755	548015	HￃﾖFLEIN AN DER THAYA (HEVLￃﾍN)	18642	Höflein an der Thaya (Hevlín)	1
16.61147	48.74191	8827	STￃﾜTZENHOFEN	18672	Stützenhofen	1
16.86919	48.69199	8563	BERNHARDSTHAL	18686	Bernhardsthal	1
16.38001	48.59086	1666	PYHRA	18701	Pyhra	1
16.64461	48.58654	3395	WILFERSDORF	18707	Wilfersdorf	1
16.81931	48.58918	2578	PALTERNDORF	18716	Palterndorf	1
18.7060573	48.96952464	548044	MￃﾜNCHWIES (VRￃﾍCKO)	18753	Münchwies (Vrícko)	1
18.65497127	48.86560792	548029	BETTELSDORF (SOLKA)	18759	Bettelsdorf (Solka)	1
18.88553826	48.82156122	548031	OBERSTUBEN (HORNￃﾁ STUBNA)	18763	Oberstuben (Horná Stubna)	1
18.75578607	48.72212455	548032	KRICKERHￃﾄU (HANDLOVￃﾁ)	18767	Krickerhäu (Handlová)	1
18.87405447	48.68562767	548035	DEUTSCH-LITTA (KOPERNICA)	18773	Deutsch-Litta (Kopernica)	1
18.56458171	48.54111692	548036	HOCHWIESEN (VEL'Kￃﾉ POLE)	18774	Hochwiesen (Vel'Ké Pole)	1
13.33412	48.29152	6302	SANKT GEORGEN BEI OBERNBERG AM INN	18786	Sankt Georgen bei Obernberg am Inn	1
12.87807	48.13026	3260	HOCHBURG	18800	Hochburg	1
13.08331	48.12996	2067	PISCHELSDORF AM ENGELBACH	18805	Pischelsdorf am Engelbach	1
13.88061	48.46514	4511	NIEDERKAPPEL	18846	Niederkappel	1
14.08545	48.45077	5870	NIEDERWALDKIRCHEN	18855	Niederwaldkirchen	1
13.62778	48.27893	6387	DORF AN DER PRAM	18902	Dorf an der Pram	1
13.83155	48.28803	1824	MICHAELNBACH	18910	Michaelnbach	1
14.10729	48.28632	5939	ALKOVEN	18923	Alkoven	1
21.33071539	54.71800592	541892	KￃﾖNIGLICH DAMERAU	1895	Königlich Damerau	1
13.34042	48.12665	8452	ARNBERG	18984	Arnberg	1
13.62036	48.11548	8840	RACKERING	18987	Rackering	1
13.84267	48.12872	4832	PENNEWANG	19003	Pennewang	1
14.10999	48.09704	8280	SIPBACHZELL	19011	Sipbachzell	1
21.6499872	54.73016708	541900	PESSELN	1904	Pesseln	1
14.34938	48.45608	8668	REICHENAU IM MￃﾜHLKREIS	19070	Reichenau im Mühlkreis	1
14.61282	48.41729	8164	GUTAU	19080	Gutau	1
14.81413	48.47743	3644	HACKSTOCK	19085	Hackstock	1
15.11597	48.4355	4536	TRAUNSTEIN	19096	Traunstein	1
14.35965	48.12637	8623	MARIA LAAH	19138	Maria Laah	1
14.56535	48.11219	4983	HAAG	19144	Haag	1
14.87066	48.12448	4455	AMSTETTEN	19154	Amstetten	1
15.13802	48.13043	671	WIESELBURG	19163	Wieselburg	1
21.93005406	54.69998961	541915	GROￃﾟ GERLAUKEN (VJAZOVKA)	1919	Groß Gerlauken (Vjazovka)	1
14.37301	48.28577	2154	STEYREGG	19225	Steyregg	1
14.58171	48.27398	5161	SCHWERTBERG	19233	Schwertberg	1
22.21995783	54.67997099	541919	PAKALLNISCHKEN (SUVOROVO)	1924	Pakallnischken (Suvorovo)	1
14.80633	48.26712	10470	BAD KREUZEN	19245	Bad Kreuzen	1
15.06545	48.28211	1649	ALTENMARKT	19257	Altenmarkt	1
15.37385	48.44265	6265	ELS	19301	Els	1
15.61839	48.43843	6317	GNEIXENDORF	19311	Gneixendorf	1
15.81873	48.4378	5673	FELS AM WAGRAM	19322	Fels am Wagram	1
16.12987	48.44154	120	OBERHAUTZENTAL	19334	Oberhautzental	1
15.37381	48.25755	3789	SCHￃﾖNBￃﾜHEL AN DER DONAU	19401	Schönbühel an der Donau	1
15.56514	48.25859	8957	KARLSTETTEN	19404	Karlstetten	1
15.85976	48.25537	2259	WￃﾜRMLA	19419	Würmla	1
16.07034	48.25642	3206	RIED AM RIEDERBERG	19429	Ried am Riederberg	1
15.34061	48.11103	6637	MANK	19479	Mank	1
15.60619	48.10536	5564	WILHELMSBURG	19486	Wilhelmsburg	1
15.862	48.08457	3882	STOLLBERG-SIEDLUNG	19492	Stollberg-Siedlung	1
19.90818698	54.64428333	535058	PILLAU	1953	Pillau	1
16.10967	48.08122	3342	GRUB	19541	Grub	1
20.15361676	54.5820861	541947	PATERSORT (BEREGOVOE)	1956	Patersort (Beregovoe)	1
16.37147	48.42971	1565	OBERGￃﾄNSERNDORF	19564	Obergänserndorf	1
16.65674	48.39499	8376	RAGGENDORF	19607	Raggendorf	1
20.42971236	54.62002257	541953	BERGAU (TZWETKOWO)	1962	Bergau (Tzwetkowo)	1
16.84009	48.41077	9119	STILLFRIED AN DER MARCH	19621	Stillfried an der March	1
17.24752517	48.27003479	548065	GRￃﾜNAU (GRINAVA)	19640	Grünau (Grinava)	1
16.37347	48.23057	4951	20. BEZIRK-BRIGITTENAU	19642	20. Bezirk-Brigittenau	1
16.56927	48.24529	877	RAASDORF	19646	Raasdorf	1
16.87702	48.24132	9501	BREITENSEE	19657	Breitensee	1
16.98660986	48.17332242	548066	THEBEN (DEVÍN)	19659	Theben (Devín)	1
16.34608	48.08334	4984	BIEDERMANNSDORF	19667	Biedermannsdorf	1
16.60641	48.08282	2058	ENZERSDORF AN DER FISCHA	19674	Enzersdorf an der Fischa	1
17.06565	48.09174	8089	KITTSEE	19696	Kittsee	1
17.27654171	48.0994024	548071	MISCHDORF BEI PRESSBURG (NOVￃﾉ KOￅﾠAR	19705	Mischdorf bei Pressburg (Nové Košar	1
16.85904	48.06596	6146	ROHRAU	19726	Rohrau	1
12.11833	47.59421	1795	THIERSEE	19739	Thiersee	1
11.67317112	47.56336878	548073	ACHENWALD	19748	Achenwald	1
20.75395508	54.59520723	541967	FUCHSBERG (SEMￃﾋNOVO)	1977	Fuchsberg (Semënovo)	1
13.08	47.94	10322	OBERTRUM AM SEE	19775	Obertrum am See	1
13.33222	47.96455	8654	HOCHFELD	19787	Hochfeld	1
13.12175	47.77639	4503	VORDERFAGER	19823	Vorderfager	1
12.39171	47.6314	5155	SCHWENDT	19851	Schwendt	1
12.56947	47.58457	8266	WAIDRING	19854	Waidring	1
13.14376	47.62566	2502	KUCHL	19859	Kuchl	1
21.02997097	54.6200058	541989	PREGELSWALDE (-)	1987	Pregelswalde (-)	1
13.60519	47.94665	9635	SCHￃﾖRFLING	19886	Schörfling	1
13.84472	47.93463	3545	GSCHWANDT	19896	Gschwandt	1
14.1261	47.93733	10508	SCHLIERBACH	19901	Schlierbach	1
13.36379	47.76694	7772	SANKT GILGEN	19941	Sankt Gilgen	1
13.77433	47.81259	1060	EBENSEE	19945	Ebensee	1
14.13035	47.80539	1998	STEYRLING	19947	Steyrling	1
13.62557	47.71194	534648	BAD ISCHL	19956	Bad Ischl	1
14.32754	47.72243	772	WINDISCHGARSTEN	19965	Windischgarsten	1
13.61647	47.64116	5193	BAD GOISERN	19971	Bad Goisern	1
13.83922	47.62693	5471	GRUNDLSEE	19977	Grundlsee	1
14.07582046	47.55789937	548078	WￃﾖRSCHACHWALD	19993	Wörschachwald	1
14.34035	47.92138	6099	TRATTENBACH	20005	Trattenbach	1
14.57161	47.97255	294	SULZBACH	20008	Sulzbach	1
14.89384	47.94794	1279	YBBSITZ	20019	Ybbsitz	1
15.08807	47.92901	9595	GAMING	20023	Gaming	1
14.63986	47.82049	4247	KLEINREIFLING	20046	Kleinreifling	1
15.31803	47.77347	5957	MARIAZELL	20049	Mariazell	1
15.18285	47.78945	3036	NEUHAUS	20051	Neuhaus	1
14.8932	47.74374	3025	LASSING	20058	Lassing	1
14.36442	47.59107	9576	ARDNING	20062	Ardning	1
14.50272	47.59723	8741	WENG	20065	Weng	1
14.76884	47.63452	5267	LAINBACH	20067	Lainbach	1
15.30481	47.65106	9648	GOLLRAD	20069	Gollrad	1
15.07837	47.532	8336	OBERORT	20077	Oberort	1
7.067507287	52.15805324	534268	WEXT	20090	Wext	1
7.29517	52.11388	101194	LEER	20099	Leer	1
7.588860605	52.12498586	543703	HERBERN	20110	Herbern	1
7.842229277	52.1330543	543711	RINGEL	20117	Ringel	1
8.14588	52.13922	116652	HILTER AM TEUTOBURGER WALD	20128	Hilter am Teutoburger Wald	1
7.064048835	52.26572224	543781	BARDEL	20240	Bardel	1
7.31817	52.25446	102505	HADDORF	20248	Haddorf	1
7.58042	52.29816	103272	HÖRSTEL	20259	Hörstel	1
7.87807	52.31422	102815	WESTERKAPPELN	20269	Westerkappeln	1
8.15798	52.31606	105354	ASTRUP	20283	Astrup	1
7.047183947	52.43692249	543795	FRENSDORF	20346	Frensdorf	1
7.31002	52.4517	107832	ELBERGEN	20350	Elbergen	1
7.575270716	52.47498927	543796	SETLAGE	20361	Setlage	1
7.82957	52.47625	106419	MERZEN	20370	Merzen	1
8.0952	52.47813	107759	VÖRDEN	20381	Vörden	1
6.73365	52.54624	109831	WIELEN	20384	Wielen	1
6.95028	52.57618	106742	HOOGSTEDE	20446	Hoogstede	1
7.26965	52.60078	115474	GEESTE	20454	Geeste	1
7.58304	52.64501	110942	DOHREN	20463	Dohren	1
7.80895926	52.64047486	543799	RENSLAGE	20468	Renslage	1
8.12092	52.65932	105319	DINKLAGE	20481	Dinklage	1
7.24493	52.79004	105553	HAREN (EMS)	20543	Haren (Ems)	1
7.5504	52.78572	109461	HÜVEN	20555	Hüven	1
7.78096	52.81598	107332	GAREN	20562	Garen	1
8.06387	52.81064	105267	SEVELTEN	20575	Sevelten	1
7.23473	52.97142	115530	NEUDERSUM	20589	Neudersum	1
7.44966	52.95796	110403	NEUBÖRGER	20596	Neubörger	1
7.76901	52.97003	520618	NEUARENBERG	20599	Neuarenberg	1
8.02414	52.95515	110755	GARREL	20604	Garrel	1
8.31184	52.83661	113801	VISBEK	20638	Visbek	1
22.50016715	54.62991219	542060	ENSKEMEN (-)	2067	Enskemen (-)	1
9.97514	52.91878	112245	WIETZENDORF	20710	Wietzendorf	1
8.878103328	52.86272692	543860	COLONIE SYKE	20734	Colonie Syke	1
9.16808	52.87499	105370	MAGELSEN	20753	Magelsen	1
9.43239	52.86343	112130	NORDKAMPEN	20763	Nordkampen	1
9.7293	52.88191	104720	VIERDE	20774	Vierde	1
10.20256	52.8993	117116	SCHMARBECK	20788	Schmarbeck	1
8.64481	52.82247	109702	BRÜMSEN	20798	Brümsen	1
22.73599317	54.63812267	535064	EYDTKAU (EYDTKUHNEN)	2081	Eydtkau (Eydtkuhnen)	1
8.58443	52.67101	116518	DÖRPEL	20891	Dörpel	1
8.88406	52.69239	111151	MAASEN	20901	Maasen	1
9.21314	52.68797	107943	DRAKENBURG	20917	Drakenburg	1
9.481851913	52.66567501	543869	UNTERRODEWALD	20920	Unterrodewald	1
9.75629	52.67757	107228	THￃﾖREN	20933	Thören	1
9.98769	52.73449	106750	HASSEL	20936	Hassel	1
10.27333	52.72449	110201	SCHARNHORST	20946	Scharnhorst	1
8.36081	52.65057	117376	ASCHEN	20948	Aschen	1
8.37572	52.50909	108434	BURLAGE	21024	Burlage	1
8.90975	52.52673	110915	HOYSINGHAUSEN	21033	Hoysinghausen	1
9.20944	52.54802	107545	BROKELOH	21045	Brokeloh	1
9.46636	52.53603	112440	EMPEDE	21050	Empede	1
9.76477	52.55174	106668	GAILHOF	21065	Gailhof	1
10.0574	52.56429	105433	ADELHEIDSDORF	21074	Adelheidsdorf	1
10.28391	52.57727	117073	NORDBURG	21085	Nordburg	1
19.21069	53.82183	160131	RODOWO	211	Rodowo	1
8.64674	52.50044	103244	PREUSSISCH STRÖHEN	21105	Preussisch Ströhen	1
8.3898	52.33045	106174	BROCKHAUSEN	21190	Brockhausen	1
8.63405	52.34995	102861	ISENSTEDT	21199	Isenstedt	1
8.95277	52.33325	103305	WIETERSHEIM	21218	Wietersheim	1
9.21751	52.36874	114317	HÜLSHAGEN	21235	Hülshagen	1
9.48492	52.38681	108796	HOLTENSEN	21252	Holtensen	1
21.27474769	54.57882765	541353	KLEIN NUHR (SUKHODOL'YE)	2127	Klein Nuhr (Sukhodol'Ye)	1
9.75132	52.3891	113565	LIST	21280	List	1
10.06143	52.39489	115927	IMMENSEN	21295	Immensen	1
10.32142	52.39354	112043	VOIGTHOLZ-AHLEMISSEN	21305	Voigtholz-Ahlemissen	1
8.41425	52.0046	101691	STEINHAGEN	21316	Steinhagen	1
8.71676	52.01463	102011	KRENTRUPERHAGEN	21342	Krentruperhagen	1
21.62013419	54.57005281	542122	SKUNGIRREN (PEN'KI)	2135	Skungirren (Pen'Ki)	1
9.01787	52.01324	103905	WENDLINGHAUSEN	21355	Wendlinghausen	1
9.23089	52.02846	107085	REHER	21362	Reher	1
9.54208	52.04508	111651	HARDERODE	21384	Harderode	1
9.78734	52.05878	108868	RHEDEN	21405	Rheden	1
10.08174	52.038	107455	NETTE	21429	Nette	1
10.32948	52.07531	114684	STEINLAH	21446	Steinlah	1
21.88330517	54.51668997	542131	KURSCHEN (KUZ'MINO)	2145	Kurschen (Kuz'Mino)	1
8.42817	52.15828	112044	GROSS SCHIPLAGE	21455	Gross Schiplage	1
22.16975911	54.52012092	542154	KALNEN (-)	2161	Kalnen (-)	1
8.6718	52.15733	101524	SCHWEICHELN-BERMBECK	21611	Schweicheln-Bermbeck	1
8.9677	52.18788	101248	VELTHEIM	21632	Veltheim	1
9.24711	52.1961	105774	ROHDEN	21666	Rohden	1
9.55567	52.20741	116182	SPRINGE	21679	Springe	1
9.76348	52.21504	109400	VARDEGￃﾖTZEN	21687	Vardegötzen	1
10.03434	52.21999	111284	RAUTENBERG	21707	Rautenberg	1
22.42986516	54.5016424	542508	SOGINTEN (SVIRSKOE)	2182	Soginten (Svirskoe)	1
10.3324	52.22627	104424	BODENSTEDT	21882	Bodenstedt	1
10.58483	52.24025	107091	RAUTHEIM	21902	Rautheim	1
11.13295	52.24058	120362	BARTENSLEBEN	21936	Bartensleben	1
19.67147972	54.46957437	540912	NARMELN (POLSKI)	2200	Narmeln (Polski)	1
19.84999981	54.46997869	543105	LEYSUHNEN (ￅﾠￄﾌUKINO)	2204	Leysuhnen (Ščukino)	1
10.84096	52.25623	112471	ROTTORF	22044	Rottorf	1
11.39951	52.24731	122830	HUNDISBURG	22063	Hundisburg	1
11.65499	52.27548	124836	FARSLEBEN	22074	Farsleben	1
11.93747	52.28307	118705	REESEN	22083	Reesen	1
12.23627	52.27553	119661	PAPLITZ	22092	Paplitz	1
10.59431	52.41361	108461	WASBￃﾜTTEL	22111	Wasbüttel	1
11.11387	52.40093	122806	RￃﾄTZLINGEN	22149	Rätzlingen	1
20.17466577	54.43254804	545946	HERMSDORF (POGRANIￄﾌNYJ)	2216	Hermsdorf (Pograničnyj)	1
11.69646	52.40703	123686	BURGSTALL	22172	Burgstall	1
10.84171	52.4211	116837	REISLINGEN	22222	Reislingen	1
11.40384	52.43433	119996	ROXFￃﾖRDE	22249	Roxförde	1
20.44948952	54.44766449	545940	MORITTEN (OKTJABRSKOE)	2225	Moritten (Oktjabrskoe)	1
11.96126	52.44002	123806	GRIEBEN	22264	Grieben	1
12.21537	52.45574	127014	ZABAKUCK	22276	Zabakuck	1
10.56262	52.59885	115220	WESTERHOLZ	22375	Westerholz	1
10.87697	52.57705	107430	TￃﾜLAU-FAHRENHORST	22384	Tülau-Fahrenhorst	1
11.09553257	52.58503126	544004	KￃﾖBBELITZ	22394	Köbbelitz	1
11.39427	52.6017	121479	SCHENKENHORST	22407	Schenkenhorst	1
20.70648261	54.44337509	535077	NAUNIENEN	2242	Naunienen	1
11.66397	52.60153	119307	QUERSTEDT	22423	Querstedt	1
11.95658	52.6014	121929	STAFFELDE	22443	Staffelde	1
12.231	52.59371	117936	GROSSWUDICKE	22453	Grosswudicke	1
10.5153	52.75135	105512	MASEL	22574	Masel	1
10.82391	52.78033	124932	HￃﾖDDELSEN	22581	Höddelsen	1
11.09919	52.76301	123964	WￃﾖPEL	22599	Wöpel	1
11.38085	52.76485	117904	MOLITZ	22621	Molitz	1
11.63736	52.76929	120905	RￃﾖNNEBECK	22636	Rönnebeck	1
11.91213	52.77979	121594	IDEN	22654	Iden	1
12.19465	52.78429	119182	KUHLHAUSEN	22667	Kuhlhausen	1
10.83564	52.89159	111226	PROITZE	22685	Proitze	1
10.52559	52.92076	112469	HOLDENSTEDT	22773	Holdenstedt	1
11.11794	52.92444	110640	WUSTROW (WENDLAND)	22796	Wustrow (Wendland)	1
11.39455	52.94488	106959	LOMITZ	22810	Lomitz	1
11.64245	52.9155	120633	JEGGEL	22819	Jeggel	1
11.92033	52.95775	121751	GROSS LￃﾜBEN	22832	Gross Lüben	1
12.2009	52.94353	126375	GￃﾖRIKE	22846	Görike	1
6.89919	51.41868	101223	HOLTHAUSEN	22910	Holthausen	1
7.14475	51.42633	101667	DAHLHAUSEN	22931	Dahlhausen	1
7.440652873	51.45810976	544034	LANGELOH	22965	Langeloh	1
7.72969	51.46063	102743	HALINGEN	22990	Halingen	1
7.96057	51.4516	103028	NEHEIM	22998	Neheim	1
8.22732	51.47615	101380	NIEDERBERGHEIM	23010	Niederbergheim	1
6.36299	51.57103	102751	KAPELLEN	23021	Kapellen	1
6.6022	51.54559	102995	RHEINBERG	23031	Rheinberg	1
6.901533702	51.5894299	544066	HOLTHAUSEN BEI KIRCHHELLEN	23184	Holthausen bei Kirchhellen	1
7.13741	51.59252	103406	HERTEN	23191	Herten	1
7.39916	51.62422	102331	WALTROP	23207	Waltrop	1
7.66172	51.59444	103160	KAMEN	23218	Kamen	1
7.93087	51.65191	102847	NORDDINKER	23231	Norddinker	1
6.07057	51.70749	103882	KESSEL	23261	Kessel	1
6.33914	51.70982	101179	KEHRUM	23271	Kehrum	1
6.59016	51.72886	103878	HAMMINKELN	23284	Hamminkeln	1
6.86433	51.74642	102304	ERLE	23293	Erle	1
8.231584076	51.66488154	544138	GÖTTINGEN	23343	Göttingen	1
22.66645761	54.4857982	547762	WENSLOWISCHKEN (VOZNESENSKOYE)	2338	Wenslowischken (Voznesenskoye)	1
7.13224	51.75267	102730	HOLTWICK	23402	Holtwick	1
7.39511	51.76309	103922	SEPPENRADE	23412	Seppenrade	1
7.5934	51.81826	102429	DAVENSBERG	23419	Davensberg	1
7.94635	51.80536	101460	VORHELM	23426	Vorhelm	1
8.20222	51.80379	101255	STROMBERG	23435	Stromberg	1
7.090871267	51.94956678	544165	STOCKUM BEI COESFELD	23453	Stockum bei Coesfeld	1
7.35441	51.92822	103416	NOTTULN	23466	Nottuln	1
7.61785	51.96303	101405	MÜNSTER	23471	Münster	1
7.89819	51.97427	102244	EINEN	23478	Einen	1
8.14209	51.97737	102153	GREFFEN	23483	Greffen	1
6.255515898	51.85708916	544174	SPEELBERG	23494	Speelberg	1
6.59361	51.87915	103952	HEMDEN	23498	Hemden	1
6.85711	51.90792	101671	WESEKE	23507	Weseke	1
5.8999	51.01437	547392	TÜDDERN	23545	Tüddern	1
6.17221	51.03878	134430	PORSELEN	23566	Porselen	1
6.40679	51.04786	135008	HOLZWEILER	23602	Holzweiler	1
6.69129	51.07309	135418	EVINGHOVEN	23630	Evinghoven	1
6.974307355	51.08552788	544260	REUSRATH	23817	Reusrath	1
7.21868086	51.10219986	535471	(STOLZENBERG)	23843	(Stolzenberg)	1
7.482521669	51.11069717	544279	OBERKLÜPPELBERG	23858	Oberklüppelberg	1
7.75338	51.12	101712	VALBERT	23873	Valbert	1
8.00787	51.15597	102266	SPORKE	23885	Sporke	1
8.28584	51.15411	103666	SCHMALLENBERG	23902	Schmallenberg	1
6.16371	51.21195	134714	ELMPT	23906	Elmpt	1
6.42005	51.22806	134866	HELENABRUNN	23922	Helenabrunn	1
6.680221539	51.21619719	544290	WEIßENBERG	23933	Weißenberg	1
20.99338566	54.40519107	547780	MERTENSDORF (TJOMKINO)	2398	Mertensdorf (Tjomkino)	1
21.28673749	54.40141987	547789	TRAUSEN (LIPNYAKI)	2409	Trausen (Lipnyaki)	1
6.9077	51.25791	135601	HUBBELRATH	24107	Hubbelrath	1
7.19655	51.27156	136207	BARMEN	24134	Barmen	1
7.439350364	51.27752811	544345	DELLE	24156	Delle	1
7.67985	51.28832	103687	ALTENA	24167	Altena	1
7.984	51.29586	102939	STOCKUM	24180	Stockum	1
6.38696445	51.38212687	545780	WALL	24208	Wall	1
6.6309	51.39584	104010	VENNIKEL	24218	Vennikel	1
21.56653326	54.36655007	547807	GROￃﾟ PENTLACK (KAMENKA)	2426	Groß Pentlack (Kamenka)	1
8.26093	51.33724	102517	BERGHAUSEN	24336	Berghausen	1
21.82957764	54.3617094	547817	KOWARREN (ZAOZERNOYE)	2436	Kowarren (Zaozernoye)	1
8.81166	51.02736	96272	BOTTENDORF	24360	Bottendorf	1
9.09777	51.04852	100016	BERGFREIHEIT	24380	Bergfreiheit	1
9.35252	51.03159	96729	ROPPERSHAIN	24412	Roppershain	1
9.63006	51.04594	95575	KONNEFELD	24431	Konnefeld	1
9.8863	51.06005	96740	BERNEBURG	24454	Berneburg	1
10.13366	51.0732	98981	LￃﾜDERBACH	24466	Lüderbach	1
8.56285	51.15356	101970	ZÜSCHEN	24490	Züschen	1
22.13331286	54.34995769	547834	KLESCHOWEN (KUTUSOWO)	2452	Kleschowen (Kutusowo)	1
8.79521	51.1695	94257	RHADERN	24636	Rhadern	1
9.08456	51.18648	99290	BUHLEN	24659	Buhlen	1
19.52712	54.32024	375013	TOLKMICKO	2466	Tolkmicko	1
9.33089	51.20406	98544	METZE	24677	Metze	1
9.59177	51.21072	100950	WATTENBACH	24695	Wattenbach	1
9.90463	51.20911	101088	VOCKERODE	24715	Vockerode	1
10.14349	51.22692	138955	GROSSTￃﾖPFER	24737	Grosstöpfer	1
19.83808	54.29556	152242	PIERZCHALY	2474	Pierzchaly	1
20.09813884	54.30449343	547844	PETERSWALDE (PIOTROWIEC)	2482	Peterswalde (Piotrowiec)	1
8.48993	51.35499	101289	OLSBERG	24884	Olsberg	1
8.76465	51.34354	95069	SUDECK	24901	Sudeck	1
9.03822	51.35057	94608	BRAUNSEN	24917	Braunsen	1
9.30371	51.36918	98507	ZIERENBERG	24926	Zierenberg	1
20.36688	54.27806	153661	SARUNY	2494	Saruny	1
9.56267	51.37759	105985	SPEELE	24942	Speele	1
9.86152	51.40459	100251	HERMANNRODE	24959	Hermannrode	1
20.66778	54.26158	524034	WOJCIECHY	2507	Wojciechy	1
8.48718	51.5111	103245	MEISTE	25113	Meiste	1
8.74005	51.51591	103985	FÜRSTENBERG	25131	Fürstenberg	1
9.02706	51.52914	102192	SCHERFEDE	25136	Scherfede	1
9.2802	51.53451	103788	KÖRBECKE	25150	Körbecke	1
9.58599	51.57712	98123	GOTTSTREU	25163	Gottstreu	1
9.84441	51.56385	115273	ESEBECK	25179	Esebeck	1
10.11311	51.57322	112706	EBERGￃﾖTZEN	25197	Ebergötzen	1
8.4739	51.66242	102200	BÖNNINGHAUSEN	25214	Bönninghausen	1
8.72275	51.65689	520373	KIRCHBORCHEN	25223	Kirchborchen	1
9.03645	51.70522	103925	SIEBENSTERN	25343	Siebenstern	1
9.2916	51.70661	103667	BRUCHHAUSEN	25354	Bruchhausen	1
9.55747	51.68976	113416	SCHￃﾖNHAGEN	25363	Schönhagen	1
9.81843	51.72098	104519	OLDENRODE	25373	Oldenrode	1
10.12307	51.7211	112731	MARKE	25391	Marke	1
8.4904	51.81524	102972	WESTERWIEHE	25407	Westerwiehe	1
8.773504023	51.83629146	545832	HAUSTENBECK	25514	Haustenbeck	1
8.98811	51.85941	104162	HEESTEN	25522	Heesten	1
9.27971	51.88107	101582	RISCHENAU	25543	Rischenau	1
9.52332	51.86619	111168	LOBACH	25560	Lobach	1
9.80806	51.87024	112147	WENZEN	25579	Wenzen	1
10.06521	51.88856	108993	ACKENHAUSEN	25596	Ackenhausen	1
10.32269	51.91222	114173	WOLFSHAGEN IM HARZ	25607	Wolfshagen im Harz	1
7.30554	50.44882	96238	KELL	25798	Kell	1
7.59824	50.45682	95124	STROMBERG	25824	Stromberg	1
7.83027	50.46395	97399	STAUDT	25845	Staudt	1
22.36881	54.311	149290	JURKISZKI	2586	Jurkiszki	1
8.10298	50.47351	98421	STEINBACH	25876	Steinbach	1
6.25276	50.53528	135386	HÖFEN	25904	Höfen	1
6.50041	50.57166	134862	GEMÜND	25914	Gemünd	1
22.66316	54.29125	148578	MACIEJOWIETA	2602	Maciejowieta	1
6.7722	50.58589	136417	IVERSHEIM	26141	Iversheim	1
7.03325	50.58326	94431	GELSDORF	26155	Gelsdorf	1
7.27917	50.58777	96207	OHLENBERG	26178	Ohlenberg	1
7.56153	50.62782	96159	SEIFEN	26205	Seifen	1
7.82891	50.63867	94397	GEHLERT	26228	Gehlert	1
8.08253	50.64513	93991	WAIGANDSHAIN	26261	Waigandshain	1
8.3276	50.65381	100248	SINN	26283	Sinn	1
6.21713	50.70959	136173	VENWEGEN	26312	Venwegen	1
6.47982	50.72767	136573	ÜDINGEN	26324	Üdingen	1
6.74579	50.73906	134374	BORR	26351	Borr	1
7.011607837	50.75523282	535359	ROISDORF	26578	Roisdorf	1
7.264558119	50.77189993	535365	GEISTINGEN	26604	Geistingen	1
7.51208	50.78124	134372	HERCHEN	26627	Herchen	1
7.80396	50.77583	99155	MITTELHOF	26642	Mittelhof	1
8.07045	50.80893	102925	WILDEN	26664	Wilden	1
8.310579688	50.82959295	535378	STRAßEBERSBACH	26683	Straßebersbach	1
6.186462819	50.8673817	545855	MARIAGRUBE	26712	Mariagrube	1
6.46479	50.88445	134724	NIEDERZIER	26734	Niederzier	1
6.71215	50.91204	136170	HORREM	26753	Horrem	1
20.97559	54.24857	149052	RYGARBY	2676	Rygarby	1
6.99248	50.9154	135446	POLL	26763	Poll	1
21.22078	54.22234	159955	KOLWINY	2691	Kolwiny	1
7.25578	50.93839	135100	HEILIGENHAUS	27003	Heiligenhaus	1
7.52408	50.94416	134961	FAULMERT	27025	Faulmert	1
21.52149	54.21336	524097	SROKOWO	2703	Srokowo	1
7.76182	50.96107	135882	HAHNSEIFEN	27038	Hahnseifen	1
8.05073	50.98044	102766	MÜSEN	27064	Müsen	1
8.29625	50.99744	103809	SCHAMEDER	27074	Schameder	1
8.88892	50.0083	100401	DUDENHOFEN	27106	Dudenhofen	1
9.19134	50.02903	82332	WENIGHÖSBACH	27135	Wenighösbach	1
21.84831	54.19826	152888	STREGIEL	2715	Stregiel	1
9.42905	50.03327	89686	WIESTHAL	27150	Wiesthal	1
9.70265	50.03536	90954	MASSENBUCH	27163	Massenbuch	1
9.97227	50.0501	83244	NEUBESSINGEN	27186	Neubessingen	1
10.2216	50.0744	73843	DITTELBRUNN	27209	Dittelbrunn	1
8.37568	50.14973	99243	VOCKENHAUSEN	27223	Vockenhausen	1
8.64714	50.16176	94522	HEDDERNHEIM	27244	Heddernheim	1
22.08998	54.1819	147123	BUDZISKA	2727	Budziska	1
8.91949	50.17877	95559	BRUCHKÖBEL	27425	Bruchköbel	1
9.15681	50.1871	95948	HAILER	27444	Hailer	1
22.3755	54.1671	149930	CHELCHY	2746	Chelchy	1
9.47236	50.1902	94694	OBERNDORF	27461	Oberndorf	1
9.68792	50.24181	72810	ROSSBACH	27469	Rossbach	1
9.95785	50.22152	88638	HASSENBACH	27480	Hassenbach	1
10.23457	50.21516	89284	POPPENLAUER	27501	Poppenlauer	1
8.38494	50.32567	96184	CRATZENBACH	27507	Cratzenbach	1
19.53293	54.15703	370990	WILKOWO	2762	Wilkowo	1
8.61792	50.34179	94840	FRIEDRICHSTAL	27692	Friedrichstal	1
8.89683	50.34677	99813	LEIDHECKEN	27719	Leidhecken	1
9.14844	50.36327	99303	GELNHAAR	27742	Gelnhaar	1
9.42231	50.36852	95263	ULMBACH	27765	Ulmbach	1
9.6511	50.39612	97574	EICHENRIED	27775	Eichenried	1
9.91324	50.3768	89689	WILDFLECKEN	27792	Wildflecken	1
10.20383	50.40168	86475	BASTHEIM	27807	Bastheim	1
19.82948	54.1413	372304	KARWINY	2781	Karwiny	1
8.38038	50.49119	94797	PHILIPPSTEIN	27821	Philippstein	1
8.61148	50.49416	99544	DORNHOLZHAUSEN	27835	Dornholzhausen	1
20.09633	54.14074	160680	KRZYKALY	2800	Krzykaly	1
8.91206	50.51945	99674	NONNENROTH	28010	Nonnenroth	1
9.14246	50.51819	100679	GÖTZEN	28027	Götzen	1
9.38635	50.53509	99217	ALTENSCHLIRF	28045	Altenschlirf	1
9.67469	50.55356	97303	FULDA	28063	Fulda	1
9.93294	50.55401	99744	RUPSROTH	28080	Rupsroth	1
10.19182	50.57012	141319	GERTHAUSEN	28107	Gerthausen	1
20.36457	54.08463	162247	MAWRY	2817	Mawry	1
17.24179	53.90401	152192	ZOLNA	282	Zolna	1
20.66023	54.12332	160459	SARNOWO	2827	Sarnowo	1
8.59958	50.66884	98188	KRUMBACH	28278	Krumbach	1
8.86344	50.67498	100459	LONDORF	28298	Londorf	1
9.08908	50.69377	95342	OTTERBACH	28315	Otterbach	1
9.42007	50.7215	97612	SCHWARZ	28330	Schwarz	1
9.65184	50.70307	98359	GROSSENMOOR	28346	Grossenmoor	1
9.89733	50.71974	95571	RASDORF	28358	Rasdorf	1
10.16738	50.70277	140563	WIESENTHAL	28369	Wiesenthal	1
8.55685	50.82511	95706	HERZHAUSEN	28392	Herzhausen	1
20.94413	54.10143	149706	LEDLAWKI	2846	Ledlawki	1
17.75803	53.87662	373273	KOSOBUDY	285	Kosobudy	1
8.84606	50.86045	101112	BETZIESDORF	28568	Betziesdorf	1
9.11693	50.85178	98606	NEUSTADT (HESSEN)	28589	Neustadt (Hessen)	1
9.34378	50.87003	96213	NEUKIRCHEN	28605	Neukirchen	1
9.64613	50.89148	98442	GITTERSDORF	28623	Gittersdorf	1
9.92366	50.8871	95036	HERFA	28640	Herfa	1
10.14264	50.87761	140225	FRAUENSEE	28651	Frauensee	1
18.09997562	53.88253175	541516	KￃﾖNIGSWIESE (LEￅﾚNA HUTA)	289	Königswiese (Leśna Huta)	1
22.62853	54.10033	153681	BORAWSKIE	2900	Borawskie	1
19.46122	53.6373	370457	ZABROWO	2906	Zabrowo	1
18.40028	53.85127	532570	LUBICHOWO	291	Lubichowo	1
19.76793	53.66096	148723	STANOWO	2916	Stanowo	1
19.75882	53.49803	147607	FIJEWO	2923	Fijewo	1
19.98230035	53.32705066	535107	GROￃﾟ KOSCHLAU	2935	Groß Koschlau	1
19.79497	53.81492	162449	LIKSAJNY	2955	Liksajny	1
20.06956	53.7834	158754	MOLZA	2962	Molza	1
20.32869	53.80238	370398	WARKALY	2970	Warkaly	1
19.4496	53.83722	170412	BUCZNIK	2996	Bucznik	1
18.94320745	53.86393989	534658	MONTAUERWEIDE	300	Montauerweide	1
13.61357	48.48026	3435	SANKT ROMAN	300660	Sankt Roman	1
13.07714	48.26128	8694	REIKERSDORF	300798	Reikersdorf	1
13.34504897	47.58758807	544193	RIGAUS	301042	Rigaus	1
21.17506	53.91539	373035	ZYNDAKI	3058	Zyndaki	1
19.52713	53.98486	524457	RYCHLIKI	3069	Rychliki	1
19.80014	53.96474	373009	CHOJNIK	3083	Chojnik	1
20.07338	53.96624	374079	KSIAZNIK	3093	Ksiaznik	1
20.36658	53.95943	372153	GLOTOWO	3111	Glotowo	1
15.54345	53.93552	532196	RYMAN	312	Ryman	1
20.64327	53.94733	150886	DERC	3122	Derc	1
7.46276	49.27843	94829	BATTWEILER	31677	Battweiler	1
7.71516	49.31178	96973	HELTERSBERG	31695	Heltersberg	1
8.00924	49.26181	95870	RAMBERG	31700	Ramberg	1
8.25607	49.30486	98557	GEINSHEIM	31719	Geinsheim	1
6.16901	49.35763	522565	DIEDENHOFEN	31737	Diedenhofen	1
6.44506	49.36868	35323	LAUMESFELD	31765	Laumesfeld	1
6.70066	49.39426	99134	BECKINGEN	31789	Beckingen	1
6.95094	49.41341	98246	CALMESWEILER	31800	Calmesweiler	1
7.21036	49.40694	96789	STEINBACH BEI OTTWEILER	31824	Steinbach bei Ottweiler	1
7.453633274	49.44090624	534156	DIETSCHWEILER	32019	Dietschweiler	1
7.69141	49.47033	95390	SIEGELBACH	32040	Siegelbach	1
7.938705171	49.49097128	534148	ALSENBORN	32053	Alsenborn	1
8.22634	49.48944	100047	ERPOLZHEIM	32067	Erpolzheim	1
6.40407	49.5531	99746	KREUZWEILER	32085	Kreuzweiler	1
6.68176	49.56202	99897	GREIMERATH	32102	Greimerath	1
6.92447	49.57302	96919	OBERLÖSTERN	32119	Oberlöstern	1
15.82486	53.93499	370644	PODWILCZE	324	Podwilcze	1
21.20504	54.0744	159092	JURKOWO	3254	Jurkowo	1
21.49172	54.03376	153053	POZARKI	3267	Pozarki	1
22.10641	54.0154	158788	GAWLIKI WIELKIE	3272	Gawliki Wielkie	1
22.3218	53.99686	371988	SWIETAJNO	3280	Swietajno	1
6.73469	49.07384	28534	ALTVILLER	32855	Altviller	1
7.00819	49.0745	30265	WOUSTVILLER	32883	Woustviller	1
21.20448314	55.71965786	522636	BARSCHKEN	3301	Barschken	1
7.27065	49.0973	27168	RIMLING	33035	Rimling	1
21.36403742	55.68662072	522639	DAWILLEN	3304	Dawillen	1
7.5068	49.10219	32484	ROPPEVILLER	33055	Roppeviller	1
7.77869	49.15063	100274	DAHN	33064	Dahn	1
21.28926499	55.59351795	522647	DITTAUEN	3309	Dittauen	1
8.00686	49.13025	93935	GLEISZELLEN	33102	Gleiszellen	1
8.25289	49.15197	95790	HERXHEIMWEYHER	33111	Herxheimweyher	1
6.44747	49.20661	30840	GUINKIRCHEN	33126	Guinkirchen	1
6.69829	49.24256	100041	ÜBERHERRN	33146	Überherrn	1
6.97751	49.24585	94013	MALSTATT	33159	Malstatt	1
21.48403217	55.55113505	522665	DEEGELN	3318	Deegeln	1
7.19974	49.24303	96131	NIEDERWÜRZBACH	33185	Niederwürzbach	1
8.95083	49.68248	94479	STEINBUCH	33331	Steinbuch	1
9.22005	49.68886	86306	BREITENDIEL	33346	Breitendiel	1
9.46691	49.69109	133241	HUNDHEIM	33364	Hundheim	1
9.72212	49.71075	84346	STEINBACH	33381	Steinbach	1
10.00107	49.72382	87569	EIBELSTADT	33400	Eibelstadt	1
20.92690302	55.23177528	535122	PILLKOPPEN	3342	Pillkoppen	1
10.24405	49.72856	89128	RￃﾖDELSEE	33420	Rödelsee	1
21.26894734	55.19209992	522717	KARKELN	3343	Karkeln	1
21.42381135	55.21041379	522719	DￃﾜNEN (ACKMENISCHKEN)	3345	Dünen (Ackmenischken)	1
21.72199295	55.21450357	522727	PLEINE	3351	Pleine	1
8.47034	49.83533	96448	ERFELDEN	33605	Erfelden	1
8.69787	49.8339	97042	TRAISA	33614	Traisa	1
22.0268655	55.19542009	522740	CULLMEN-KULKEN	3362	Cullmen-Kulken	1
8.96256	49.84068	100587	HEUBACH	33631	Heubach	1
20.85374118	55.15623681	540914	ROSITTEN (RYBACHIY)	3364	Rositten (Rybachiy)	1
9.20105	49.85922	90366	HOFSTETTEN	33648	Hofstetten	1
9.49031	49.86977	93143	BISCHBRUNN	33660	Bischbrunn	1
9.69494	49.85804	77833	BIRKENFELD	33677	Birkenfeld	1
10.01031	49.88363	85120	RUPPRECHTSHAUSEN	33692	Rupprechtshausen	1
10.22647	49.88995	83058	GAIBACH	33711	Gaibach	1
8.41048	49.9948	97074	RÜSSELSHEIM	33725	Rüsselsheim	1
8.66668	49.98671	100262	LANGEN (HESSEN)	33741	Langen (Hessen)	1
8.49951	49.30106	131656	ALTLUSSHEIM	33849	Altlussheim	1
8.75841	49.319	132491	SCHATTHAUSEN	33860	Schatthausen	1
22.28508079	55.1405652	522769	SASSENHￃﾖHE (AUGSGIRREN)	3387	Sassenhöhe (Augsgirren)	1
9.00823	49.3472	131042	DAUDENZELL	34001	Daudenzell	1
9.25406	49.34748	127680	BILLIGHEIM	34015	Billigheim	1
9.48669	49.36603	132998	OBERKESSACH	34025	Oberkessach	1
9.75131	49.37199	127424	AILRINGEN	34044	Ailringen	1
10.04968	49.41216	131053	LICHTEL	34058	Lichtel	1
10.29855	49.39891	80976	WINDELSBACH	34065	Windelsbach	1
8.44734	49.48099	98443	LUDWIGSHAFEN AM RHEIN	34076	Ludwigshafen am Rhein	1
8.72439	49.49399	131624	URSENBACH	34096	Ursenbach	1
8.96544	49.52482	100198	GAMMELSBACH	34216	Gammelsbach	1
9.2439	49.53425	131022	RUMPFEN	34228	Rumpfen	1
9.5049	49.53499	133647	GERICHTSTETTEN	34235	Gerichtstetten	1
10.85747	52.07227	109286	BEIERSTEDT	3424	Beierstedt	1
9.73105	49.54759	127954	KÖNINGSHOFEN	34247	Königshofen	1
10.00364	49.53411	71509	AUFSTETTEN	34266	Aufstetten	1
10.26555	49.57552	85270	WEIGENHEIM	34288	Weigenheim	1
8.44622	49.66245	98888	BOBSTADT	34305	Bobstadt	1
8.71527	49.65645	99179	MITTERSHAUSEN	34321	Mittershausen	1
16.14955	53.95055	148262	MODROLAS	344	Modrolas	1
8.52712	49.00389	132448	BERGHAUSEN	34447	Berghausen	1
9.26281	49.02206	132319	WINZERHAUSEN	34503	Winzerhausen	1
9.540869694	49.05526871	544414	LIEMERSBACH	34522	Liemersbach	1
9.76976	49.02851	129426	EUTENDORF	34535	Eutendorf	1
10.03779	49.07016	133651	HONHARDT	34545	Honhardt	1
10.29368	49.06036	84337	SEGRINGEN	34557	Segringen	1
8.48928	49.16535	132099	GRABEN	34566	Graben	1
8.75076	49.17902	129784	ODENHEIM	34707	Odenheim	1
9.04557	49.17711	131137	MASSENBACHHAUSEN	34734	Massenbachhausen	1
9.259617235	49.17403608	544422	BINSWANGEN	34750	Binswangen	1
9.50581	49.20179	132484	ÖHRINGEN	34773	Öhringen	1
9.77159	49.22127	130602	DÖTTINGEN	34791	Döttingen	1
10.00529	49.21815	131563	GAGGSTATT	34802	Gaggstatt	1
10.30317	49.2154	83055	DORFGￃﾜTINGEN	34818	Dorfgütingen	1
10.55891	49.05667	86624	RￃﾖCKINGEN	34838	Röckingen	1
10.79788	49.07592	90276	WINDSFELD	34855	Windsfeld	1
11.05857	49.0799	93045	ETTENSTATT	34872	Ettenstatt	1
11.29856	49.08918	78399	UNTERMￃﾄSSING	35003	Untermässing	1
11.56796	49.10204	74152	GIMPERTSHAUSEN	35011	Gimpertshausen	1
11.80902	49.09535	71608	BERATZHAUSEN	35026	Beratzhausen	1
12.0673	49.1151	73344	EITLBRUNN	35035	Eitlbrunn	1
12.30395	49.09295	91348	ALTENTHANN	35046	Altenthann	1
10.54482	49.22796	92821	RAUENZELL	35055	Rauenzell	1
10.77453	49.23381	91279	ISMANNSDORF	35067	Ismannsdorf	1
16.41182	53.94692	162750	SMECINO	351	Smecino	1
10.59503	52.0891	106358	BORNUM	3516	Bornum	1
11.05323	49.26665	70858	BￃﾜCHENBACH	35165	Büchenbach	1
11.30851	49.26458	79457	SELIGENPORTEN	35168	Seligenporten	1
11.58242	49.26041	81535	GￃﾜNCHING	35188	Günching	1
11.83645	49.28746	83858	ADERTSHAUSEN	35195	Adertshausen	1
12.07574	49.27923	84806	WIEFELSDORF	35204	Wiefelsdorf	1
12.3034	49.26958	75662	BODENWￃﾖHR	35211	Bodenwöhr	1
10.50832	49.40157	90207	FLACHSLANDEN	35223	Flachslanden	1
10.78893	49.40409	70872	GROSSHABERSDORF	35236	Grosshabersdorf	1
11.26115	49.41257	88899	BIRNTHON	35254	Birnthon	1
11.03657675	49.41647082	544228	RￃﾖTHENBACH	35339	Röthenbach	1
11.54411	49.42912	77160	ALFELD	35377	Alfeld	1
11.75991	49.43993	92487	AMMERTHAL	35382	Ammerthal	1
12.05548	49.43541	76222	TRISCHING	35393	Trisching	1
10.51095	49.58186	77313	UNTERNESSELBACH	35517	Unternesselbach	1
10.76904	49.58998	92619	OBERREICHENBACH	35524	Oberreichenbach	1
11.04964	49.59343	85286	BUCKENHOF	35544	Buckenhof	1
11.2727	49.58234	80296	KIRCHRￃﾖTTENBACH	35562	Kirchröttenbach	1
11.52376	49.59651	72938	HARTENSTEIN	35571	Hartenstein	1
11.7912	49.607	86320	SCHLICHT	35577	Schlicht	1
11.15611	52.09298	121880	BECKENDORF	3558	Beckendorf	1
12.01846	49.59211	80555	KOHLBERG	35585	Kohlberg	1
12.31766	49.60633	78547	OBERLIND	35597	Oberlind	1
16.6593432	53.9295732	534872	PORST	356	Porst	1
10.47624	49.74814	73801	HAAG	35710	Haag	1
11.43652	52.09266	121079	DOMERSLEBEN	3572	Domersleben	1
10.77547	49.75347	88467	MￃﾜHLHAUSEN	35729	Mühlhausen	1
11.03	49.76363	85428	PAUTZFELD	35755	Pautzfeld	1
11.26105	49.76878	84090	MOGGAST	35762	Moggast	1
11.5433	49.75642	86952	PEGNITZ	35778	Pegnitz	1
11.82038	49.78699	78377	SPEINSHART	35791	Speinshart	1
12.03638	49.77975	92020	FRIEDERSREUTH	35799	Friedersreuth	1
12.31033	49.78557	80913	PLￃﾖSSBERG	35807	Plössberg	1
10.49998	49.88641	78900	GEUSFELD	35824	Geusfeld	1
10.77167	49.90142	80879	TￃﾜTSCHENGEREUTH	35843	Tütschengereuth	1
11.00996	49.9114	92918	LITZENDORF	35857	Litzendorf	1
11.6759	52.10371	126882	PRESTER	3592	Prester	1
11.29084	49.93687	83906	HOLLFELD	36007	Hollfeld	1
11.51595	49.93435	73059	DONNDORF	36017	Donndorf	1
11.78525	49.922	91734	KIRCHENPINGARTEN	36039	Kirchenpingarten	1
12.0609	49.93217	77978	HOHENHARD	36049	Hohenhard	1
12.2854	49.94685	71694	LEONBERG	36056	Leonberg	1
7.14395868	48.07027814	535430	HOHRODBERG	36065	Hohrodberg	1
7.36359	48.08198	31694	COLMAR	36084	Colmar	1
11.98839	52.1129	123771	DALCHAU	3609	Dalchau	1
12.19377	52.10792	119140	SCHWEINITZ	3614	Schweinitz	1
7.54397	48.44858	27113	MEISTRATZHEIM	36159	Meistratzheim	1
7.83364	48.46521	132470	MÜLLEN	36178	Müllen	1
8.318877104	48.47427737	535438	KNIEBIS (KR.FREUDENSTADT)	36202	Kniebis (Kr.Freudenstadt)	1
12.50581	52.60408	119893	NENNHAUSEN	3626	Nennhausen	1
8.08784	48.49713	128437	ÖDSBACH	36272	Ödsbach	1
7.09516	48.56921	30266	TURQUESTEIN-BLANCRUPT	36277	Turquestein-Blancrupt	1
7.30732	48.6228	29369	WANGENBOURG	36282	Wangenbourg	1
7.56378	48.61325	34859	FURDENHEIM	36309	Furdenheim	1
7.800596219	48.61004415	535446	RUPRECHTSAU	36334	Ruprechtsau	1
12.79568	52.62028	125382	BERGE	3634	Berge	1
8.06363	48.62871	130859	ACHERN	36348	Achern	1
7.05201	48.73253	522594	SAARBURG	36362	Saarburg	1
13.04255	52.63911	120353	PAUSIN	3639	Pausin	1
7.26992	48.75755	171959	BOIS DE CHÊNE	36489	Bois De Chêne	1
13.31752	52.6149	119944	HERMSDORF	3649	Hermsdorf	1
7.55068	48.7751	31730	WILSHAUSEN	36525	Wilshausen	1
7.81552	48.78159	30134	MARIENTHAL	36552	Marienthal	1
8.05803	48.80321	36426	FORT-LOUIS	36567	Fort-Louis	1
8.30895	48.81087	129232	BAD ROTENFELS	36594	Bad Rotenfels	1
16.97152	53.91653	162673	PRZERADZ	366	Przeradz	1
13.57455	52.62656	126273	BIRKHOLZ	3664	Birkholz	1
6.98122	48.93023	27494	ALTWILLER	36737	Altwiller	1
7.25159	48.91879	29239	WEISLINGEN	36755	Weislingen	1
13.86407	52.61048	122379	GIELSDORF	3677	Gielsdorf	1
7.48181	48.9216	28610	LICHTENBERG	36772	Lichtenberg	1
7.76782	48.95111	29006	GOERSDORF	36789	Goersdorf	1
8.04269	48.95814	25854	SIEGEN	36823	Siegen	1
8.26776	48.96981	134177	NEUBURGWEIER	36842	Neuburgweier	1
14.14088	52.61704	127226	RINGENWALDE	3688	Ringenwalde	1
7.62537	48.10625	127778	BISCHOFFINGEN	36880	Bischoffingen	1
7.88416	48.12924	134007	MALECK	36898	Maleck	1
8.0932	48.15752	129888	YACH	36911	Yach	1
7.38445	48.24184	31120	ORSCHWILLER	36933	Orschwiller	1
7.60713	48.28366	31314	BINDERNHEIM	37007	Bindernheim	1
7.85658	48.27938	132276	SCHMIEHEIM	37025	Schmieheim	1
14.42838597	52.59654716	547887	LEHMANNSHￃﾖFEL	3703	Lehmannshöfel	1
8.07369	48.29315	131725	BOLLENBACH	37035	Bollenbach	1
7.33005	48.40339	34415	LE HOHWALD	37058	Le Hohwald	1
14.6799315	52.59997004	547885	WARNICK (WARNIKI)	3711	Warnick (Warniki)	1
8.37655	48.16035	132924	BUCHENBERG	37119	Buchenberg	1
8.6275	48.16786	129752	ROTTWEIL	37138	Rottweil	1
8.86282	48.16319	132412	OBERNHEIM	37153	Obernheim	1
14.95374	52.62138	385626	ZASZCZYTOWO	3722	Zaszczytowo	1
9.11728	48.17723	128051	WINTERLINGEN	37302	Winterlingen	1
9.35367	48.20566	131215	DÜRRENWALDSTETTEN	37314	Dürrenwaldstetten	1
9.6255	48.21166	132414	HAUSEN AM BUSSEN	37333	Hausen am Bussen	1
9.8845	48.20597	128322	BAUSTETTEN	37354	Baustetten	1
10.10404	48.22279	81585	ILLERTISSEN	37369	Illertissen	1
8.37253	48.31105	129571	SCHENKENZELL	37388	Schenkenzell	1
8.57013	48.31544	130666	AISTAIG	37401	Aistaig	1
15.18918	52.60977	393038	RUDNICA	3744	Rudnica	1
8.81662	48.35457	128030	STETTEN BEI HAIGERLOCH	37555	Stetten bei Haigerloch	1
9.12013	48.35833	133459	SALMENDINGEN	37571	Salmendingen	1
9.33549	48.3568	132598	BERNLOCH	37581	Bernloch	1
9.60621	48.37705	129053	GUNDERSHOFEN	37598	Gundershofen	1
9.87924	48.36355	128359	EGGINGEN	37607	Eggingen	1
10.10684	48.37944	74978	HOLZHEIM	37622	Holzheim	1
8.57584	48.49849	133441	OBERWALDACH	37658	Oberwaldach	1
8.83695	48.52245	127575	BONDORF	37802	Bondorf	1
9.07887	48.53096	131441	LUSTNAU	37825	Lustnau	1
9.34646	48.52951	130804	DETTINGEN AN DER ERMS	37855	Dettingen an der Erms	1
9.56312	48.51405	132136	DONNSTETTEN	37862	Donnstetten	1
9.85361	48.52731	132857	RADELSTETTEN	37869	Radelstetten	1
10.0765	48.55285	131298	BALLENDORF	37883	Ballendorf	1
10.32391	48.56885	93272	OBERMEDLINGEN	37900	Obermedlingen	1
8.34869	48.63918	128211	RAUMÜNZACH	37902	Raumünzach	1
9.05976	48.66017	130893	SCHÖNAICH	37947	Schönaich	1
8.54684	48.67203	132539	HÜNERBERG	38044	Hünerberg	1
8.82859	48.69507	129506	GECHINGEN	38056	Gechingen	1
9.31773	48.69423	127326	DENKENDORF	38095	Denkendorf	1
9.56681	48.69308	131250	ALBERSHAUSEN	38116	Albershausen	1
9.8211	48.71191	130160	WINZINGEN	38136	Winzingen	1
10.06418	48.72989	132357	ZANG	38146	Zang	1
10.29294	48.731	129855	AUERNHEIM	38155	Auernheim	1
8.55523	48.82296	131983	DENNACH	38169	Dennach	1
8.80329	48.82521	132338	TIEFENBRONN	38182	Tiefenbronn	1
9.03021	48.84495	129516	SCHÖCKINGEN	38348	Schöckingen	1
9.29823	48.8577	130587	HEGNACH	38373	Hegnach	1
9.54865	48.85844	128316	STEINENBERG	38407	Steinenberg	1
9.81435	48.88102	131913	RUPPERTSHOFEN	38422	Ruppertshofen	1
10.0482	48.8833	129290	FACHSENFELD	38437	Fachsenfeld	1
10.31352	48.90259	130117	BALDERN	38448	Baldern	1
8.74383	48.99804	130252	KLEINVILLARS	38482	Kleinvillars	1
9.02154	48.99915	133433	HOHENHASLACH	38502	Hohenhaslach	1
8.86067	48.00602	132343	NENDINGEN	38623	Nendingen	1
9.10207	48.01811	132477	ROHRDORF	38640	Rohrdorf	1
9.38609	48.01005	130194	VÖLLKOFEN	38655	Völlkofen	1
9.61467	48.01934	129126	REICHENBACH	38666	Reichenbach	1
9.88168	48.04583	131901	MITTELBUCH	38682	Mittelbuch	1
10.12798	48.0594	128901	UNTEROPFINGEN	38695	Unteropfingen	1
12.46028	52.80289	123880	DREETZ	3871	Dreetz	1
10.59756	48.568	81558	KICKLINGEN	38720	Kicklingen	1
10.83586	48.57347	83465	WESTENDORF	38738	Westendorf	1
11.33526	48.58019	89893	WAIDHOFEN	38764	Waidhofen	1
11.5777	48.58007	74038	ESCHELBACH AN DER ILM	38774	Eschelbach an der Ilm	1
12.72901	52.77304	126978	BRUNNE	3880	Brunne	1
11.09074	48.58242	74385	PￃﾖTTMES	38863	Pöttmes	1
13.03193	52.80287	121701	SOMMERFELD	3887	Sommerfeld	1
11.82132	48.5868	87550	HEBRONTSHAUSEN	38899	Hebrontshausen	1
12.11336	48.60961	74959	OBERGLAIM	38912	Oberglaim	1
10.5672	48.73137	72973	FRONHOFEN	38935	Fronhofen	1
13.2942	52.80213	125968	MALZ	3896	Malz	1
11.07121	48.74457	86825	STEPPERG	38963	Stepperg	1
14.10557	52.94874	123638	STOLZENHAGEN	3901	Stolzenhagen	1
13.55547	52.78887	126204	PRENDEN	3906	Prenden	1
10.84006	48.75927	87505	HAFENREUT	39062	Hafenreut	1
11.34577	48.75413	91872	GEROLFING	39089	Gerolfing	1
11.57629	48.76108	93570	IRSCHING	39103	Irsching	1
11.84985	48.75567	92240	SIEGENBURG	39116	Siegenburg	1
12.07877	48.78621	73861	SEMERSKIRCHEN	39126	Semerskirchen	1
12.30322	48.76569	83760	HOFKIRCHEN	39140	Hofkirchen	1
10.55239	48.90411	92861	DￃﾜRRENZIMMERN	39160	Dürrenzimmern	1
10.84499	48.91055	87863	GUNDELSHEIM	39179	Gundelsheim	1
13.83613	52.77805	126786	TRAMPE	3919	Trampe	1
11.30127	48.91192	79905	WALTING	39201	Walting	1
11.03844	48.92811	90807	BIESWANG	39293	Bieswang	1
14.14217	52.78127	124481	NEUREETZ	3931	Neureetz	1
11.56632	48.94379	80799	PONDORF	39317	Pondorf	1
11.86022084	48.92952421	544532	NEUKELHEIM	39329	Neukelheim	1
12.06031	48.92014	73106	PEISING	39342	Peising	1
10.34917	48.07733	89286	ARLESRIED	39356	Arlesried	1
10.64019	48.06227	79195	TￃﾜRKHEIM	39370	Türkheim	1
11.37906	48.06724	85373	GAUTING	39398	Gauting	1
14.46705	52.76029	147579	KURZYCKO	3944	Kurzycko	1
10.86116	48.08685	74196	KAUFERING	39459	Kaufering	1
11.1147	48.08132	83352	ECHING AM AMMERSEE	39475	Eching am Ammersee	1
14.6936	52.787	150736	GRZYMIRADZ	3949	Grzymiradz	1
11.63032	48.10063	89000	PERLACH	39494	Perlach	1
11.82207	48.08316	93263	ZORNEDING	39503	Zorneding	1
12.11102	48.11149	93298	ALBACHING	39509	Albaching	1
12.33055	48.0921	80835	SANKT LEONHARD	39515	Sankt Leonhard	1
10.37948	48.22448	71494	NIEDERRAUNAU	39517	Niederraunau	1
10.59053	48.22651	82192	WALKERTSHOFEN	39529	Walkertshofen	1
10.85682	48.23762	84488	OBEROTTMARSHAUSEN	39546	Oberottmarshausen	1
14.94817	52.78026	531341	LUBISZYN	3957	Lubiszyn	1
11.09471	48.25545	74035	MITTELSTETTEN	39647	Mittelstetten	1
15.20762904	52.77160384	535125	HEINERSDORF	3965	Heinersdorf	1
11.36479	48.259	91230	BERGKIRCHEN	39662	Bergkirchen	1
11.56857	48.27277	78425	UNTERSCHLEISSHEIM	39667	Unterschleissheim	1
11.84372	48.27687	91670	MOOSINNING	39673	Moosinning	1
12.123	48.27017	83532	OBERDORFEN	39687	Oberdorfen	1
10.35773	48.39694	76916	WETTENHAUSEN	39693	Wettenhausen	1
10.59655	48.39991	88455	ZUSMARSHAUSEN	39710	Zusmarshausen	1
10.82614	48.41021	88843	TￃﾄFERTINGEN	39723	Täfertingen	1
11.09634	48.41371	72348	GALLENBACH	39742	Gallenbach	1
11.35435	48.42974	73328	HILGERTSHAUSEN	39865	Hilgertshausen	1
11.59892	48.43114	72319	ALLERSHAUSEN	39880	Allershausen	1
11.85874117	48.44110373	544547	RAST	39891	Rast	1
12.10757	48.4469	87052	VILSHEIM	39901	Vilsheim	1
12.62129	49.10828	82925	SATTELBOGEN	39954	Sattelbogen	1
12.83618	49.11683	89344	KRAILING	39962	Krailing	1
13.04039	49.10159	73289	OBERRIED	39968	Oberried	1
12.34467	49.42629	85816	PERTOLZHOFEN	40000	Pertolzhofen	1
12.58351	49.43764	75007	TIEFENBACH	40012	Tiefenbach	1
12.61149	49.26579	76282	PEMFLING	40047	Pemfling	1
12.81439	49.27324	72456	ARNSCHWANG	40057	Arnschwang	1
12.59359	48.12803	81519	WALD AN DER ALZ	40112	Wald an der Alz	1
12.33456	48.30807	77601	RANOLDSBERG	40137	Ranoldsberg	1
12.57622	48.27659	88448	ERHARTING	40145	Erharting	1
12.87181	48.27722	82164	GUMPERSDORF	40155	Gumpersdorf	1
12.35586	48.44847	93127	VILSBIBURG	40191	Vilsbiburg	1
12.56337	48.4371	80656	GANGKOFEN	40202	Gangkofen	1
12.84533	48.45503	90464	NEUHOFEN	40212	Neuhofen	1
13.09117	48.44358	91891	BAD BIRNBACH	40220	Bad Birnbach	1
13.33631	48.43818	83577	RUHSTORF AN DER ROTT	40231	Ruhstorf an der Rott	1
12.34456	48.62368	86881	WￃﾖRTH AN DER ISAR	40274	Wörth an der Isar	1
12.57731	48.59899	89554	GRIESBACH	40286	Griesbach	1
12.82663	48.60642	73681	INDERSBACH	40297	Indersbach	1
13.07675	48.60848	89328	WALCHSING	40308	Walchsing	1
13.32647	48.64583	73805	KIRCHBERG	40320	Kirchberg	1
13.59698	48.61501	75559	HAAG	40331	Haag	1
12.58848	48.75623	89926	HANKOFEN	40402	Hankofen	1
12.87113	48.77837	75653	PLATTLING	40414	Plattling	1
13.09897	48.80355	91866	AUERBACH	40420	Auerbach	1
13.35627	48.77431	84111	SALDENBURG	40428	Saldenburg	1
13.58501	48.76475	84144	KARLSBACH	40439	Karlsbach	1
12.61304	48.95448	72278	STEINACH	40516	Steinach	1
12.80208	48.95084	85441	PERASDORF	40524	Perasdorf	1
13.12842	48.96849	73191	REGEN	40531	Regen	1
13.31941	48.92172	78467	KLINGENBRUNN	40535	Klingenbrunn	1
12.35085	48.91814	86464	RIEKOFEN	40538	Riekofen	1
9.68397	47.54611	79504	LINDAU (BODENSEE)	40597	Lindau (Bodensee)	1
9.920912754	47.54890348	534361	SCHNELLERS	40605	Schnellers	1
10.13498	47.56238	72151	RATHOLZ	40613	Ratholz	1
8.18086	47.6336	133937	ESCHBACH	40637	Eschbach	1
8.42011	47.66108	129007	ERZINGEN	40655	Erzingen	1
8.90035	47.68774	132354	SCHIENEN	40757	Schienen	1
9.146804618	47.69228556	546010	WOLLMATINGEN	40771	Wollmatingen	1
9.40004	47.69278	129179	KLUFTERN	40785	Kluftern	1
9.64125	47.6819	128674	OBEREISENBACH	40798	Obereisenbach	1
9.89935	47.72211	129612	RATZENRIED	40807	Ratzenried	1
12.45354	52.93648	122057	BANTIKOW	4081	Bantikow	1
10.12658869	47.70975489	535603	KREUZTHAL	40819	Kreuzthal	1
8.39596	47.82501	131887	MÜNCHINGEN	40844	Münchingen	1
8.66036	47.81721	129798	TENGEN	40863	Tengen	1
9.13657	47.83337	129675	BILLAFINGEN	40898	Billafingen	1
12.74485	52.92901	123847	KRￃﾄNZLIN	4093	Kränzlin	1
8.8974	47.85806	130872	EIGELTINGEN	41018	Eigeltingen	1
13.01943	52.93953	123243	SEEBECK	4102	Seebeck	1
9.37456	47.86209	133733	ILLMENSEE	41049	Illmensee	1
9.66279	47.84325	133939	BAINDT	41057	Baindt	1
9.86355	47.89058	132320	ZIEGELBACH	41064	Ziegelbach	1
10.13795	47.88954	91094	MARIA STEINBACH	41076	Maria Steinbach	1
8.16331	47.98172	132801	WALDAU	41086	Waldau	1
8.38827	47.96002	133559	HUBERTSHOFEN	41098	Hubertshofen	1
8.63525	47.99144	133784	ÖFINGEN	41114	Öfingen	1
13.28074	52.96653	124119	KLEIN-MUTZ	4112	Klein-Mutz	1
13.52861	52.99313	124065	GROSS DￃﾖLLN	4119	Gross Dölln	1
6.99386	47.7727	31069	MASEVAUX	41200	Masevaux	1
7.15065	47.7618	25178	ASPACH-LE-BAS	41214	Aspach-Le-Bas	1
13.85918	52.933	119544	SENFTENHￃﾜTTE	4123	Senftenhütte	1
7.65665	47.78685	127959	LIPBURG	41245	Lipburg	1
7.91301	47.80054	131987	UTZENFELD	41262	Utzenfeld	1
8.177056956	47.79865784	546039	SCHLUCHSEE - BLASIWALD	41275	Schluchsee - Blasiwald	1
7.37872	47.94354	23927	OBERENTZEN	41296	Oberentzen	1
7.64962	47.93629	133429	FELDKIRCH	41309	Feldkirch	1
7.90831	47.96423	128554	KAPPEL	41336	Kappel	1
6.95521	47.88255	27759	URBÈS	41351	Urbès	1
7.15658	47.90483	32998	RIMBACH-PRÈS-GUEBWILLER	41365	Rimbach-Près-Guebwiller	1
14.35655	52.94545	152474	STOKI	4142	Stoki	1
7.39739	47.74412	26570	RIXHEIM	41460	Rixheim	1
14.65982	52.93143	372358	STOLECZNA	4152	Stoleczna	1
7.44726	47.58851	33696	RANSPACH-LE-BAS	41566	Ranspach-Le-Bas	1
7.66409	47.61258	131694	LÖRRACH	41598	Lörrach	1
14.92963	52.96688	158956	GLAZOW	4161	Glazow	1
7.94873	47.62902	130474	HÜTTEN	41623	Hütten	1
7.1873	47.56163	24527	LARGITZEN	41653	Largitzen	1
15.23687	52.94023	161296	OKUNIE	4171	Okunie	1
7.246	47.42133	36499	LUCELLE	41714	Lucelle	1
11.3957	47.9297	81078	HￃﾖHENRAIN	41785	Höhenrain	1
11.89878	47.92796	82491	GROSSHￃﾖHENRAIN	41801	Grosshöhenrain	1
12.07702	47.92339	88213	TATTENHAUSEN	41811	Tattenhausen	1
10.36106	47.90072	71373	OLLARZRIED	41819	Ollarzried	1
10.62392	47.8793	83571	KAUFBEUREN	41836	Kaufbeuren	1
10.85157	47.91541	88202	DENKLINGEN	41845	Denklingen	1
11.10862	47.91142	75437	RAISTING	41855	Raisting	1
11.60938	47.90265	79008	BAIERNRAIN	41872	Baiernrain	1
11.15493	47.76917	74653	HUGLFING	41932	Huglfing	1
11.37598	47.75192	89961	PENZBERG	41939	Penzberg	1
11.63273	47.76683	76329	REICHERSBEUERN	41948	Reichersbeuern	1
11.86487	47.78497	92849	PARSBERG	41953	Parsberg	1
12.10834	47.77873	89038	KIRCHDORF AM INN	41963	Kirchdorf am Inn	1
12.32437868	47.7804255	546057	ASCHAU IM CHIEMGAU-NIEDERASCHAU	41969	Aschau im Chiemgau-Niederaschau	1
10.37842	47.73522	88458	BETZIGAU	41971	Betzigau	1
10.64225	47.72354	70998	SULZSCHNEID	41980	Sulzschneid	1
10.86194	47.70374	79796	STEINGADEN	41986	Steingaden	1
10.80235	47.62584	86626	BAYERNIEDERHOFEN	42039	Bayerniederhofen	1
11.43474	47.60578	74050	JACHENAU	42049	Jachenau	1
10.4287	47.54427	75067	UNTERJOCH	42056	Unterjoch	1
11.13614	47.56027	78677	OBERAU	42062	Oberau	1
12.3808	47.92824	89391	EGGSTￃﾄTT	42070	Eggstätt	1
12.60502	47.9401	71122	TRAUNWALCHEN	42076	Traunwalchen	1
12.83494	47.95304	84494	KIRCHANSCHￃﾖRING	42084	Kirchanschöring	1
12.6446	47.7642	86734	RUHPOLDING	42116	Ruhpolding	1
12.85562	47.8048	90765	ANGER	42118	Anger	1
12.89858	47.60782	80214	RAMSAU BEI BERCHTESGADEN	42132	Ramsau bei Berchtesgaden	1
5.9236	50.10765	143055	HACHIVILLE	42140	Hachiville	1
5.8408	50.00969	143413	NIEDERWAMPACH	42166	Niederwampach	1
6.06535	50.02878	143331	NEIDHAUSEN	42180	Neidhausen	1
6.0989	49.84595	143253	ETTELBRÜCK	42236	Ettelbrück	1
5.84827	49.83005	143345	RAMBROUCH	42254	Rambrouch	1
5.87903	49.68492	143183	EISCHEN	42302	Eischen	1
6.13014	49.69662	143097	HÜNSDORF	42316	Hünsdorf	1
6.37179	49.70572	143272	BIWER	42341	Biwer	1
5.89989933	49.51504146	535595	UEWERKUER	42414	Uewerkuer	1
6.12794	49.52288	143430	PEPPANGE	42431	Peppange	1
15.38244	47.94787	9710	SCHWARZENBACH AN DER PIELACH	42469	Schwarzenbach an der Pielach	1
15.55216	47.96124	7622	LEHENROTTE	42470	Lehenrotte	1
15.90216	47.92604	1786	THAL	42472	Thal	1
16.08669	47.92652	198	GRILLENBERG	42477	Grillenberg	1
15.87681701	47.77801293	10140	SCHNEEBERGDￃﾖRFL	42520	Schneebergdörfl	1
16.08847	47.75818	9438	MOLLRAM	42527	Mollram	1
15.48478	47.74201	8462	FREIN AN DER MￃﾜRZ	42532	Frein an der Mürz	1
15.54487109	47.59687437	546336	MASSING	42571	Massing	1
15.82957	47.63272	6423	SEMMERING	42573	Semmering	1
16.05379	47.59927	214	FEISTRITZ AM WECHSEL	42587	Feistritz am Wechsel	1
16.29922	47.56108	6273	GLEICHENBACH	42612	Gleichenbach	1
16.86813	47.92623	534584	WEIDEN AM SEE	42635	Weiden am See	1
17.06908	47.94045	2799	NICKELSDORF	42637	Nickelsdorf	1
16.35122	47.9008	10134	SIEGERSDORF	42640	Siegersdorf	1
16.54389	47.90702	9101	STOTZING	42647	Stotzing	1
17.26934729	47.87440861	546068	WIESELBURG (MOSONMAGYARￃﾓVￃﾁR)	42670	Wieselburg (Mosonmagyaróvár)	1
17.03243	47.77548	1379	ANDAU	42688	Andau	1
16.33758	47.73828	3617	WIESEN	42691	Wiesen	1
16.5	47.74	9645	BAUMGARTEN	42701	Baumgarten	1
16.83099	47.74316	534585	APETLON	42706	Apetlon	1
16.54986	47.5862	10118	HORITSCHON	42722	Horitschon	1
16.70298754	47.63565159	546074	HOLLING (FERTￅﾐBOZ)	42728	Holling (Fertőboz)	1
9.40477	47.52836	19735	FRASNACHT	42748	Frasnacht	1
9.484246649	47.36098971	546200	RIETLI	42821	Rietli	1
9.68872	47.36211	3182	HOHENEMS	42843	Hohenems	1
9.92969	47.36918	1690	BIZAU	42850	Bizau	1
10.18618	47.35752	4515	RIEZLERN	42856	Riezlern	1
9.51164	47.21906	19546	GAMPRIN	42908	Gamprin	1
9.70087	47.21608	9730	RÖNS	42926	Röns	1
12.53709	52.46053	126041	BRIELOW	4293	Brielow	1
9.95159	47.24486	748	BUCHBODEN	42933	Buchboden	1
10.14178	47.20829	535422	LECH	42939	Lech	1
9.43609	47.05023	18460	SARGANS	42970	Sargans	1
9.91962	47.0796	9137	SCHRUNS	42977	Schruns	1
10.63017	47.5495	5330	VILS	42985	Vils	1
10.45746	47.35978	7660	HINTERHORNBACH	43004	Hinterhornbach	1
10.7188	47.40497	9627	RINNEN	43013	Rinnen	1
10.91941	47.39865	432	EHRWALD	43021	Ehrwald	1
11.1415	47.37082	1185	LEUTASCH	43022	Leutasch	1
10.40366	47.27019	7337	BACH	43027	Bach	1
10.91525164	47.25459638	546202	SILZERBERG	43037	Silzerberg	1
11.16754	47.27785	1238	HATTING	43055	Hatting	1
12.77535	52.44648	118345	DEETZ	4306	Deetz	1
10.6733	47.20566	1864	MILS BEI IMST	43070	Mils bei Imst	1
10.94458	47.08861	9805	UNTERRIED	43122	Unterried	1
10.42385701	47.07414704	546216	HOLDERNACH	43133	Holdernach	1
10.69065	47.07803	8678	KAUNS	43152	Kauns	1
11.22749746	47.04262442	546220	UNTERBERG	43161	Unterberg	1
11.69612	47.43967	9415	PERTISAU	43162	Pertisau	1
11.87799	47.4296	6743	BRIXLEGG	43173	Brixlegg	1
12.13101	47.43303	1326	PENNINGDￃﾖRFL	43183	Penningdörfl	1
13.01356	52.46797	118018	FAHRLAND	4321	Fahrland	1
11.39128	47.268	534620	INNSBRUCK	43210	Innsbruck	1
11.65175	47.28259	5867	KOLSASSBERG	43224	Kolsassberg	1
11.89594	47.26277	5653	ASCHAU IM ZILLERTAL	43251	Aschau im Zillertal	1
12.17451	47.22176	5578	KRIMML	43280	Krimml	1
11.41668	47.08294	3357	TRINS	43285	Trins	1
11.80858	47.10028	1541	DORNAUBERG	43288	Dornauberg	1
13.31884	52.45754	118092	STEGLITZ	4329	Steglitz	1
11.56392	47.07904	3401	SCHMIRN	43297	Schmirn	1
12.39066	47.44653	4241	KITZBￃﾜHEL	43301	Kitzbühel	1
12.61808	47.46972	2088	HOCHFILZEN	43303	Hochfilzen	1
12.84747	47.42641	5210	SAALFELDEN AM STEINERNEN MEER	43310	Saalfelden am Steinernen Meer	1
13.18832	47.47773	10295	WERFEN	43315	Werfen	1
12.34725	47.27256	5495	BRAMBERG AM WILDKOGEL	43331	Bramberg am Wildkogel	1
12.64755	47.28096	255	NIEDERNSILL	43340	Niedernsill	1
12.87289	47.28677	2590	SANKT GEORGEN	43347	Sankt Georgen	1
13.09941	47.31872	1339	GOLDEGG	43354	Goldegg	1
13.31958	47.27754	1774	KLEINARL	43359	Kleinarl	1
13.13395	47.11854	5826	BAD GASTEIN	43372	Bad Gastein	1
12.51516503	47.04156948	546335	BERG-GRUBEN	43378	Berg-Gruben	1
12.84031	47.04043	8700	HEILIGENBLUT	43379	Heiligenblut	1
13.57597707	52.44726789	547967	KￃﾖPENICK-KIETZ	4338	Köpenick-Kietz	1
13.38096	47.46482	4902	SANKT MARTIN AM TENNENGEBIRGE	43381	Sankt Martin am Tennengebirge	1
13.64303421	47.43252461	534426	RAMSAU	43384	Ramsau	1
13.83698	47.42669	226	ASSACH	43391	Assach	1
14.12842	47.46558	619	DONNERSBACH	43393	Donnersbach	1
13.50701	47.30564	3298	UNTERTAUERN	43412	Untertauern	1
14.1970266	47.2083512	534609	PￃﾖLLAU	43420	Pöllau	1
13.59505	47.10385	2792	OBERWEISSBURG	43427	Oberweissburg	1
13.86054	47.13683	4337	SAUERFELD	43433	Sauerfeld	1
14.082	47.15748	5991	RANTEN	43439	Ranten	1
14.34241366	47.47847787	619498	STRECHEN	43453	Strechen	1
14.59176	47.47537	6847	TREGLWANG	43455	Treglwang	1
14.7566	47.42758	6980	KALWANG	43457	Kalwang	1
15.00592	47.42652	2389	TROFAIACH	43458	Trofaiach	1
15.31902	47.45635	6194	HAFENDORF	43462	Hafendorf	1
13.85729	52.48105	125818	HERZFELDE	4347	Herzfelde	1
15.02024	47.33684	8693	SANKT MICHAEL IN OBERSTEIERMARK	43480	Sankt Michael in Obersteiermark	1
14.37456	47.30846	6442	PUSTERWALD	43488	Pusterwald	1
14.50683	47.27613	8232	SANKT OSWALD	43489	Sankt Oswald	1
14.86061	47.27134	2144	SANKT MAREIN BEI KNITTELFELD	43494	Sankt Marein bei Knittelfeld	1
15.32683	47.27106	1078	FROHNLEITEN	43497	Frohnleiten	1
14.58797	47.18549	28	SANKT PETER OB JUDENBURG	43505	Sankt Peter ob Judenburg	1
14.35911	47.12854	9054	TEUFENBACH	43530	Teufenbach	1
14.84171801	47.13405498	547265	SANKT JOHANN	43534	Sankt Johann	1
15.09385	47.13971	839	KAINACH BEI VOITSBERG	43537	Kainach bei Voitsberg	1
15.31842	47.12932	1785	GRATWEIN	43544	Gratwein	1
14.16203	52.44962	123040	TEMPELBERG	4357	Tempelberg	1
15.54737076	47.46487161	546455	FOCHNITZ	43576	Fochnitz	1
15.78607	47.42619	1304	WENIGZELL	43579	Wenigzell	1
16.06044	47.41082	6421	EHRENSCHACHEN	43633	Ehrenschachen	1
14.37014	52.44265	126566	DￃﾖBBERIN	4364	Döbberin	1
16.32252	47.40965	6462	SALMANNSDORF	43640	Salmannsdorf	1
15.57706	47.30103	10382	SANKT KATHREIN AM OFFENEGG	43662	Sankt Kathrein am Offenegg	1
16.27994	47.26125	4749	SIGET IN DER WART	43699	Siget in der Wart	1
15.80046	47.24372	221	STUBENBERG	43715	Stubenberg	1
16.0511	47.24824	8387	UNTERROHR	43726	Unterrohr	1
15.59967	47.12305	7330	EGGERSDORF	43756	Eggersdorf	1
15.8282	47.10255	5054	SINABELKIRCHEN	43761	Sinabelkirchen	1
14.66362	52.45044	391717	PAMIECIN	4377	Pamiecin	1
16.05235	47.11596	3752	BAD BLUMAU	43773	Bad Blumau	1
16.29	47.11	9014	DEUTSCH TSCHANTSCHENDORF	43782	Deutsch Tschantschendorf	1
16.56482	47.42237	8922	KLOSTERMARIENBERG	43850	Klostermarienberg	1
14.93236	52.42916	392165	GRABNO	4388	Grabno	1
16.47778	47.05607	10504	MOSCHENDORF	43889	Moschendorf	1
12.31475713	46.92057333	534599	ST. JAKOB	43896	St. Jakob	1
12.59312	46.9352	1146	OBERPEISCHLACH	43905	Oberpeischlach	1
12.91357	46.92176	4804	MￃﾖRTSCHACH	43909	Mörtschach	1
13.12956	46.93588	10067	FLATTACH	43910	Flattach	1
13.30489	46.87654	4471	KOLBNITZ	43938	Kolbnitz	1
12.42881	46.78683	7303	AUSSERVILLGRATEN	43939	Ausservillgraten	1
12.64129	46.78642	3519	ASSLING	43948	Assling	1
12.90159739	46.80107624	546625	LINDSBERG	43959	Lindsberg	1
12.88865392	46.6878005	546616	KORNAT	43977	Kornat	1
13.13513	46.748	9885	BERG IM DRAUTAL	43982	Berg im Drautal	1
13.14093524	46.63688624	546629	GODERSCHACH	43988	Goderschach	1
15.25601	52.43521	388117	TRZEMESZNO LUBUSKIE	4400	Trzemeszno Lubuskie	1
13.61805	46.96121	3286	KREMSBRￃﾜCKE	44006	Kremsbrücke	1
14.14701	46.96508	1573	OBERHOF	44010	Oberhof	1
13.35354	46.76855	4225	KLEBLACH-LIND	44038	Kleblach-Lind	1
13.59095	46.81068	5274	OBERMILLSTATT	44040	Obermillstatt	1
13.86855	46.81487	8265	PATERGASSEN	44054	Patergassen	1
14.11499	46.78868	8714	STEUERBERG	44056	Steuerberg	1
13.37109	46.62639	8038	HERMAGOR	44109	Hermagor	1
13.62932	46.62924	8901	BLEIBERG-KREUTH	44117	Bleiberg-Kreuth	1
13.84913	46.61814	734	VILLACH	44124	Villach	1
14.09615	46.6028	6389	SCHIEFLING	44142	Schiefling	1
14.15621	46.52731	9342	SUETSCHACH	44162	Suetschach	1
14.35719	46.96895	2290	SANKT SALVATOR	44174	Sankt Salvator	1
14.56406	46.95104	8394	HEFT	44182	Heft	1
14.84334	46.94205	3115	SCHIEFLING	44189	Schiefling	1
15.06027	46.95812	756	MODRIACH	44196	Modriach	1
15.30585759	46.94288017	546667	LAUNEGG	44200	Launegg	1
14.34325	46.77864	7927	OBERMￃﾜHLBACH	44234	Obermühlbach	1
14.59575692	46.78150471	546676	HOCHFEISTRITZ	44243	Hochfeistritz	1
14.82185	46.76853	2653	SANKT ANDRￃﾄ	44248	Sankt Andrä	1
15.05749	46.82465	8144	GLASHￃﾜTTEN	44256	Glashütten	1
15.2506	46.75716	10163	SANKT PETER IM SULMTAL	44261	Sankt Peter im Sulmtal	1
15.33322	46.68678	9402	OBERHAAG	44295	Oberhaag	1
14.34094181	46.62086942	546693	KLAGENFURT-HARBACH	44303	Klagenfurt-Harbach	1
14.64	46.59	521	EBERNDORF	44308	Eberndorf	1
14.99264879	46.63785121	546695	LORENZENBERG	44313	Lorenzenberg	1
14.83890934	46.59443582	546696	SANKT MARGARETHEN	44314	Sankt Margarethen	1
14.59311	46.48725	2342	BAD EISENKAPPEL	44320	Bad Eisenkappel	1
15.79639	46.94074	1701	PALDAU	44333	Paldau	1
16.07	46.95	7489	HOHENBRUGG AN DER RAAB	44347	Hohenbrugg an der Raab	1
16.23016	46.94766	534643	MOGERSDORF	44358	Mogersdorf	1
15.55307	46.91398	6381	ALLERHEILIGEN BEI WILDON	44371	Allerheiligen bei Wildon	1
15.53776	46.78113	8234	LEIBNITZ	44398	Leibnitz	1
15.96717	46.76413	424	KLￃﾖCH	44414	Klöch	1
15.81757	46.74348	2486	RATSCHENDORF	44425	Ratschendorf	1
15.53005787	46.65028558	548139	LANGEGG	44433	Langegg	1
14.8560774	45.73778552	548119	Ebental (Polom)	44439	Ebental (Polom)	1
15.02728837	45.72261381	548136	Steinwand (Podstenice)	44442	Steinwand (Podstenice)	1
14.67181656	45.60384838	548123	Obergras (Trava)	44445	Obergras (Trava)	1
14.74770542	45.61189263	548125	Göttenitz (Gotenica)	44447	Göttenitz (Gotenica)	1
15.03087485	45.60255868	548129	Nesseltal (Koprivnik)	44454	Nesseltal (Koprivnik)	1
14.85834462	45.51864086	548132	Tiefenbach (Briga)	44461	Tiefenbach (Briga)	1
15.0105791	45.52366898	548133	Unterlag (Spodnji Log)	44465	Unterlag (Spodnji Log)	1
8.67668	47.65174	17313	WILDENSBUCH	44519	Wildensbuch	1
8.92158	47.50308	15490	WITTENWIL	44610	Wittenwil	1
9.17245	47.51119	15104	NEUKIRCH AN DER THUR	44685	Neukirch an der Thur	1
7.05489	47.21053	17325	MONT-TRAMELAN	44770	Mont-Tramelan	1
7.33682	47.17484	16781	PIETERLEN	44771	Pieterlen	1
7.24963	47.08695	20067	MERZLIGEN	44796	Merzligen	1
7.05094	47.0286	19869	GALS	44801	Gals	1
7.43357	47.42091	17342	HUGGERWALD	44832	Huggerwald	1
7.70742	47.43095	19343	ZIEFEN	44851	Ziefen	1
7.94157	47.45097	14921	ANWIL	44858	Anwil	1
8.19271	47.48341	20355	UMIKEN	44888	Umiken	1
7.46811	47.26233	21142	GÄNSBRUNNEN	44994	Gänsbrunnen	1
7.71686	47.29035	18840	OENSINGEN	45009	Oensingen	1
7.98008	47.30166	18911	MÜHLETHAL	45022	Mühlethal	1
8.22892	47.295	16367	MEISTERSCHWANDEN	45067	Meisterschwanden	1
7.47711	47.10073	20863	MÜLCHI	45192	Mülchi	1
8.21008	47.00992	20613	EIGENTHAL	45195	Eigenthal	1
12.46878	52.2815	127119	WOLLIN	4521	Wollin	1
12.74891	52.28544	121241	RￃﾄDEL	4527	Rädel	1
8.22909	47.15072	17289	HILDISRIEDEN	45279	Hildisrieden	1
7.99288	47.12224	20018	WILLISAU	45299	Willisau	1
7.75229	47.11468	18984	BLEUEN	45312	Bleuen	1
8.45336	47.48282	21207	DIELSDORF	45345	Dielsdorf	1
8.64828	47.48988	20759	UNTERWAGENBURG	45356	Unterwagenburg	1
13.06389	52.28482	127181	WILDENBRUCH	4539	Wildenbruch	1
8.933650889	47.34867219	546140	BODEN BEI FISCHENTHAL	45474	Boden bei Fischenthal	1
13.31588	52.29388	126556	LￃﾖWENBRUCH	4549	Löwenbruch	1
9.19226	47.33685	15607	DICKEN BEI DEGERSHEIM	45492	Dicken bei Degersheim	1
8.46842	47.315	18134	BONSTETTEN	45501	Bonstetten	1
8.7118	47.33293	18535	RIEDIKON	45529	Riedikon	1
13.58802	52.29504	520748	DEUTSCH WUSTERHAUSEN	4560	Deutsch Wusterhausen	1
8.74759	47.18729	21196	FEUSISBERG	45611	Feusisberg	1
9.24974	47.18569	17551	STARKENBACH	45627	Starkenbach	1
8.46603	47.13414	14984	RISCH	45630	Risch	1
8.97469	47.17031	20322	REICHENBURG	45644	Reichenburg	1
7.26899	46.91951	18380	SÜRI	45692	Süri	1
7.11169	46.89102	18409	COURLEVON	45694	Courlevon	1
7.27905	46.75873	16831	BRÜNISRIED	45716	Brünisried	1
7.16491	46.7464	15071	FERPICLOZ	45718	Ferpicloz	1
7.29083	46.575	18597	ABLÄNDSCHEN	45722	Abländschen	1
14.09297	52.30323	123743	NEU GOLM	4573	Neu Golm	1
7.53639	46.9425	20880	DENTENBERG	45734	Dentenberg	1
9.50106	46.67764	19331	MUTTEN	45758	Mutten	1
7.77862	46.95165	20765	OBERFRITTENBACH	45764	Oberfrittenbach	1
8.01947	46.95361	15052	SCHÜPFHEIM	45784	Schüpfheim	1
16.65187	54.07285	147980	WIETRZNO	458	Wietrzno	1
14.43839	52.28346	126348	HOHENWALDE	4584	Hohenwalde	1
7.53347	46.77956	15405	GURZELEN	45863	Gurzelen	1
7.778154595	46.78695117	546242	LINDEN (OBERLANGENEGG)	45878	Linden (Oberlangenegg)	1
8.03502	46.82127	17051	SÖRENBERG	45891	Sörenberg	1
8.15956	46.78539	15374	LUNGERN	45892	Lungern	1
14.65486	52.26578	364652	KUNICE	4590	Kunice	1
14.92745	52.28483	387340	MIERCZANY	4595	Mierczany	1
7.55173	46.61887	18035	ENTSCHWIL	45962	Entschwil	1
7.83214	46.63635	19696	SAXETEN	45980	Saxeten	1
8.28997	46.65467	20369	GUTTANNEN	45992	Guttannen	1
8.30435	46.50637	20610	ULRICHEN	46009	Ulrichen	1
8.52515	46.99078	19744	GERSAU	46017	Gersau	1
8.72369	46.98729	20108	ILLGAU	46021	Illgau	1
9.15179	46.98481	15285	ENGI	46026	Engi	1
9.0456	46.97772	16157	LEUGGELBACH	46027	Leuggelbach	1
15.26046	52.26456	391775	TOPOROW	4603	Toporow	1
8.99894	46.91957	17273	LINTHAL	46038	Linthal	1
8.40439	46.82098	14847	ENGELBERG	46040	Engelberg	1
8.65031	46.82368	16447	ERSTFELD	46045	Erstfeld	1
9.28213	46.78757	15438	VALENDAS	46048	Valendas	1
9.10314	46.75132	14654	MEIERHOF	46050	Meierhof	1
9.2905	46.66809	19652	CAMANA	46051	Camana	1
9.2436	46.53889	19212	NUFENEN	46055	Nufenen	1
9.66534	46.98498	17535	FANAS	46059	Fanas	1
10.24492	46.9884	8018	MATHON	46070	Mathon	1
10.18908688	46.95780239	535419	GALTￃﾜR	46071	Galtür	1
9.47688	46.84455	19989	FELSBERG	46073	Felsberg	1
9.74271	46.91529	20533	FIDERIS	46079	Fideris	1
13.88034	52.28599	124312	ALT STAHNSDORF	4608	Alt Stahnsdorf	1
9.88017	46.88004	17985	KLOSTERS	46083	Klosters	1
9.71508	46.7045	19434	WIESEN	46101	Wiesen	1
9.53685	46.45853	20734	AM BACH	46104	Am Bach	1
7.32205	46.42482	18159	LAUENEN	46115	Lauenen	1
7.53458	46.48725	19295	STIEGELSCHWAND	46118	Stiegelschwand	1
8.1432	46.42441	15672	FIESCHERTAL	46119	Fieschertal	1
8.01442	46.3349	19725	BITSCH	46127	Bitsch	1
7.66359	46.29695	19772	AGARN	46129	Agarn	1
7.81598522	46.28128685	626681	HASEL	46132	Hasel	1
7.93672	46.12324	16260	SAAS GRUND	46142	Saas Grund	1
8.11373	46.16129	19556	ZWISCHBERGEN	46143	Zwischbergen	1
7.7484	46.02414	19407	Zermatt	46145	Zermatt	1
12.10710013	47.04166281	546253	PRETTAU (PREDOI)	-46146	Prettau (Predoi)	1
11.92143812	46.95139218	546283	LUTTACH (LUTAGO)	46157	Luttach (Lutago)	1
10.63866245	46.83825902	546289	HINTERKIRCH (GRAUN)	-46161	Hinterkirch (Graun)	1
11.156652	46.871323	546263	RABENSTEIN (MOOS)	-46162	Rabenstein (Moos)	1
11.43095197	46.91229351	546262	TSCHￃﾖFS (CEVES)	46170	Tschöfs (Ceves)	1
11.70668566	46.8867533	546295	PFUNDERS (FUNDRES)	-46175	Pfunders (Fundres)	1
12.10062179	46.85947024	546299	ANTHOLZ (ANTERSELVA DI MEZZO)	-46181	Antholz (Anterselva Di Mezzo)	1
11.665945	46.770262	546309	SCHABS (SCIAVES)	-46195	Schabs (Sciaves)	1
12.19183685	46.77103721	546330	PICHL	-46215	Pichl	1
10.52936081	46.7107352	546331	BURGEIS (BURGUSIO)	-46217	Burgeis (Burgusio)	1
10.78187881	46.75742756	546350	KURZRAS (CORTERASO)	-46226	Kurzras (Corteraso)	1
10.93457311	46.68890715	546354	KATHARINABERG (SANTA CATERINA)	-46227	Katharinaberg (Santa Caterina)	1
11.18153697	46.72780082	546361	VERNUER (VERNURIO)	-46234	Vernuer (Vernurio)	1
10.54690805	46.59833157	546475	STILFS (STELVIO)	-46262	Stilfs (Stelvio)	1
10.70118629	46.61743807	546393	LAAS (LASA)	46267	Laas (Lasa)	1
11.20412984	46.58568332	546408	GARGAZON (GARGAZZONE)	46283	Gargazon (Gargazzone)	1
11.61186982	46.60311182	546418	SANKT PETER HINTER LAJEN (SAN PIETR	-46293	Sankt Peter Hinter Lajen (San Pietr	1
11.00515196	46.54922739	546429	SANKT WALBURG (SANTA VALBURGA)	-46305	Sankt Walburg (Santa Valburga)	1
11.38	46.56	546443	WANGEN (VANGA)	-46319	Wangen (Vanga)	1
11.06	46.46	546481	LAUREIN (LAUREGNO)	46324	Laurein (Lauregno)	1
11.24240205	46.41465671	546496	KALTERN (CALDARO)	-46340	Kaltern (Caldaro)	1
11.43174923	46.4138887	546500	DEUTSCHNOFEN (NOVA PONENTE)	-46344	Deutschnofen (Nova Ponente)	1
11.36733955	46.27778405	546604	ALTREI (ANTERIVO)	-46351	Altrei (Anterivo)	1
11.21313811	46.24017188	546509	SALURN (SALORNO)	-46353	Salurn (Salorno)	1
11.92297057	46.76992104	546516	STEFANSDORF (SANTO STEFANO)	46361	Stefansdorf (Santo Stefano)	1
11.32397722	45.92359227	546520	Lusern	46365	Lusern (Luserna)	1
11.1227383	45.653233	546521	Giazza	46367	Ljetzan (Giazza)	1
11.436	45.8731	1180652	Mezzaselva	46369	Lusern (Luserna)	1
10.49966	46.88969	6360	NAUDERS	46385	Nauders	1
10.97561	46.90951	2662	HEILIGKREUZ	46386	Heiligkreuz	1
8.76123	54.36107	111390	POPPENBÜLL	46391	Poppenbüll	1
9.01723	54.35595	110639	DAHRENWURTH	46407	Dahrenwurth	1
9.32093	54.37498	114791	BERGENHUSEN	46420	Bergenhusen	1
9.60329	54.39392	104920	OWSCHLAG	46430	Owschlag	1
9.85497	54.39931	115164	HOLTSEE	46443	Holtsee	1
10.16151	54.39584	109324	PRIES	46459	Pries	1
10.42395	54.38844	109426	STAKENDORF	46481	Stakendorf	1
10.60371	54.34619	106252	BEHRENSDORF (OSTSEE)	46492	Behrensdorf (Ostsee)	1
16.95143	54.06604	372705	OKUNINO	465	Okunino	1
11.04304	54.45888	114308	SULSDORF	46554	Sulsdorf	1
11.27372	54.4157	110105	STABERDORF	46570	Staberdorf	1
8.59403	54.51596	114072	ALTE KIRCHE	46637	Alte Kirche	1
9.29715	54.56549	104548	SOLLERUPFELD	46652	Sollerupfeld	1
9.53279	54.55137	110275	NEUBEREND	46666	Neuberend	1
9.86157	54.5608	113808	ZIMMERT	46684	Zimmert	1
10.01569	54.58425	112057	DAMP	46687	Damp	1
11.05568	54.5229	110804	WESTERMARKELSDORF	46693	Westermarkelsdorf	1
9.25023	54.71004	116692	GROSSENWIEHE	46784	Grossenwiehe	1
9.53735	54.71602	106876	ESTRUP	46798	Estrup	1
9.82753	54.7088	113555	WIPPENDORF	46806	Wippendorf	1
9.99077	54.684	110953	MAASHOLM	46823	Maasholm	1
9.527650699	54.88239225	546584	BEKEN (BￃﾆKKEN)	46924	Beken (Bækken)	1
8.31903	53.00936	110492	SANDHATTEN	47139	Sandhatten	1
8.60779032	53.01070805	546885	ADELHEIDE	47154	Adelheide	1
8.8805	53.0151	108013	DREYE	47171	Dreye	1
9.196856353	53.02650299	534824	ALLERDORF	47183	Allerdorf	1
7.20615	53.12109	104986	HEERENLAND	47189	Heerenland	1
7.44007	53.13135	116005	STEENFELDE	47203	Steenfelde	1
7.78056	53.14718	114842	LOHE	47219	Lohe	1
7.985741345	53.15868334	546892	BURGFELDE	47224	Burgfelde	1
8.32018	53.17327	109345	MOORHAUSEN	47235	Moorhausen	1
12.51771	52.13159	120553	KLEIN GLIEN	4727	Klein Glien	1
8.5663	53.17486	109077	BARDENFLETH	47370	Bardenfleth	1
12.78651	52.11314	119274	NIEDERWERBIG	4738	Niederwerbig	1
17.25621	54.06601	532087	KRAMARZYNY	474	Kramarzyny	1
8.842222062	53.18391576	546941	MITTELBAUER	47402	Mittelbauer	1
9.14746	53.2099	116271	NEUENBÜLSTEDT	47422	Neuenbülstedt	1
7.43783	53.30502	105688	NEERMOOR	47447	Neermoor	1
7.75073	53.3052	114054	REMELS	47455	Remels	1
8.031800239	53.28863493	546954	PETERSFELD	47463	Petersfeld	1
8.300590806	53.32493665	547015	JADERBOLLENHAGEN	47470	Jaderbollenhagen	1
13.024	52.1175	121408	ZￃﾜLICHENDORF	4749	Zülichendorf	1
8.56993	53.34549	116945	OFFENWARDENERMOOR	47598	Offenwardenermoor	1
13.27178	52.10773	127210	SCHￃﾖNEWEIDE	4761	Schöneweide	1
8.86492	53.35456	116563	PADDEWISCH	47612	Paddewisch	1
9.14538	53.38607	106020	OBER-OCHTENHAUSEN	47624	Ober-Ochtenhausen	1
7.17054	53.43708	104449	CIRKWEHRUM	47650	Cirkwehrum	1
7.39969	53.44123	114218	WESTERENDE-HOLZLOOG	47657	Westerende-Holzloog	1
7.7709	53.44988	110442	WIESEDE	47670	Wiesede	1
7.9855	53.47874	106416	NEUSTADTGÖDENS	47677	Neustadtgödens	1
13.58801	52.13116	121359	EGSDORF	4770	Egsdorf	1
13.81765	52.11735	118933	BIRKHOLZ	4776	Birkholz	1
17.54883	54.03056	148470	PRADZONKA	478	Pradzonka	1
10.73902	54.25873	116412	KￃﾜKELￃﾜHN	47840	Kükelühn	1
11.0513	54.2567	108090	SIGGENEBEN	47861	Siggeneben	1
8.84172	54.17734	116402	HEDWIGENKOOG	47863	Hedwigenkoog	1
9.00073	54.19265	113125	EDEMANNSWISCH	47885	Edemannswisch	1
14.12444	52.10684	121239	BRIESCHT	4789	Briescht	1
9.309525305	54.20670884	547042	OESTERBORSTEL	47893	Oesterborstel	1
9.62152	54.18985	113405	HAMWEDDEL	47907	Hamweddel	1
9.88642	54.21312	105273	WARDER	47916	Warder	1
10.13493	54.22103	114877	KLEIN BARKAU	47935	Klein Barkau	1
10.44134	54.24809	116342	MUCHELN	47952	Mucheln	1
14.38034	52.11292	122419	GROSS BRIESEN	4800	Gross Briesen	1
10.95855	54.15122	108565	GRￃﾖMITZ	48096	Grömitz	1
8.8805	54.0062	111885	FRIEDRICHSKOOG	48098	Friedrichskoog	1
9.03523	54.02143	114237	BARLTERALTENDEICH	48105	Barlteraltendeich	1
9.34836	54.04212	115903	HOLSTENNIENDORF	48115	Holstenniendorf	1
9.63427	54.06696	107539	JAHRSDORF	48126	Jahrsdorf	1
14.70338	52.1319	389787	KLOPOT	4813	Klopot	1
9.8945	54.05265	106194	EHNDORF	48141	Ehndorf	1
10.17854	54.0485	108692	GￃﾖNNEBEK	48156	Gönnebek	1
10.46243	54.07286	113330	WￃﾖBS	48164	Wöbs	1
10.71297	54.07936	115904	SￃﾜSEL	48186	Süsel	1
9.11080098	53.89052151	547127	BRUNSBÜTTELERHAFEN	48233	Brunsbüttelerhafen	1
9.33008	53.86164	108237	BROKDORF	48239	Brokdorf	1
14.96435	52.1209	531406	RADOMICKO	4824	Radomicko	1
7.69412	53.77033	108712	SPIEKEROOG	48240	Spiekeroog	1
8.5904	53.82092	105523	BERENSCH	48242	Berensch	1
8.77311	53.82372	113024	ALTENBRUCH	48247	Altenbruch	1
7.14497	53.70519	104236	NORDERNEY	48282	Norderney	1
7.38496	53.72648	107919	BALTRUM-OSTDORF	48283	Baltrum-Ostdorf	1
8.5169	53.67513	106267	MISSELWARDEN	48302	Misselwarden	1
15.22954	52.08252	531233	RADNICA	4832	Radnica	1
9.06278	53.71132	113303	WEISSENMOOR	48324	Weissenmoor	1
7.14249	53.5993	116568	ITZENDORF	48342	Itzendorf	1
7.3911	53.60903	107815	ARLE	48356	Arle	1
7.66379	53.62527	115481	STEDESDORF	48368	Stedesdorf	1
7.97986	53.63678	116088	WÜPPELS	48383	Wüppels	1
8.30186	53.60355	116854	LANGWARDEN	48392	Langwarden	1
8.80591	53.66003	109010	FLÖGELN	48401	Flögeln	1
8.330792544	53.53273255	547062	IFFENS	48477	Iffens	1
8.53201	53.53048	111755	BLEXEN	48487	Blexen	1
8.82184	53.52681	114688	ALTLUNEBERG	48497	Altluneberg	1
9.1253	53.53544	117253	HÖNAU-LINDORF	48507	Hönau-Lindorf	1
12.23798	54.2492	126570	GRAAL-MￃﾜRITZ	48516	Graal-Müritz	1
11.61406	54.10586	120017	RERIK	48522	Rerik	1
11.85396	54.10812	120082	BRODHAGEN	48532	Brodhagen	1
12.14585	54.1182	120864	TOITENWINKEL	48550	Toitenwinkel	1
18.09229	54.0637	161323	NIEDAMOWO	486	Niedamowo	1
10.48741	53.91971	106292	STRUKDORF	48675	Strukdorf	1
10.73453	53.91976	110657	SEREETZ	48702	Sereetz	1
11.03609	53.92008	122052	GROSS VOIGTSHAGEN	48716	Gross Voigtshagen	1
11.33016	53.9304	120794	BECKERWITZ	48726	Beckerwitz	1
11.60462	53.94318	121253	STEINHAUSEN	48738	Steinhausen	1
11.83423	53.94661	118646	BERENDSHAGEN	48752	Berendshagen	1
12.1512	53.94766	118714	WIENDORF	48765	Wiendorf	1
9.59053	53.86975	115465	RETHWISCH	48790	Rethwisch	1
9.88862	53.87033	107683	LENTFￃﾖHRDEN	48800	Lentföhrden	1
10.17638	53.89247	108120	TODESFELDE	48812	Todesfelde	1
10.44713	53.75756	113127	KLEINBODEN	49022	Kleinboden	1
10.76242	53.75636	121168	CAMPOW	49043	Campow	1
11.05079	53.75628	125724	NESOW	49076	Nesow	1
11.32985	53.7779	124347	DALLIENDORF	49090	Dalliendorf	1
11.61879	53.77558	120979	NEUHOF	49108	Neuhof	1
11.88526	53.78539	118874	WARNOW	49122	Warnow	1
12.17296	53.79677	122921	GￃﾜSTROW	49140	Güstrow	1
9.38137	53.71165	114186	DROCHTERSEN	49146	Drochtersen	1
9.64927	53.70258	111287	GROSS NORDENDE	49162	Gross Nordende	1
9.89519	53.73194	108360	QUICKBORN	49176	Quickborn	1
10.21851	53.74313	111665	JERSBEK	49188	Jersbek	1
9.4597	53.03452	112630	RIEKENBOSTEL	49311	Riekenbostel	1
9.68499	53.04779	115425	BROCHDORF	49322	Brochdorf	1
9.99781	53.08488	112343	BISPINGEN	49332	Bispingen	1
10.2827	53.0747	107558	WETTENBOSTEL	49338	Wettenbostel	1
10.51368	53.08083	114616	SEEDORF	49348	Seedorf	1
10.78178	53.06946	113438	STOETZE	49362	Stoetze	1
11.09034	53.09668	113402	DANNENBERG (ELBE)	49498	Dannenberg (Elbe)	1
18.35818	54.02938	374684	JAROSZEWY	495	Jaroszewy	1
15.49242	52.12575	386409	PALCK	4950	Palck	1
11.38051	53.1086	126878	BREETZ	49509	Breetz	1
11.69264	53.10028	118243	LAASLICH	49524	Laaslich	1
11.90134	53.10669	119086	LￃﾜBZOW	49534	Lübzow	1
12.18296	53.11903	122468	BUCHHOLZ	49551	Buchholz	1
9.40421	53.19342	105676	HETZWEGE	49562	Hetzwege	1
9.74297	53.2407	117368	OTTER	49569	Otter	1
10.00938	53.22233	104882	OLLSEN	49579	Ollsen	1
10.2488	53.23284	110732	WESTERGELLERSEN	49587	Westergellersen	1
10.78385	53.24416	114276	BARSKAMP	49605	Barskamp	1
15.76848	52.10724	388623	STARE KRAMSKO	4965	Stare Kramsko	1
15.99102	52.11557	374557	ZODYN	4968	Zodyn	1
10.56531	53.25038	112386	WENDHAUSEN	49727	Wendhausen	1
11.0857	53.26914	121225	JESSENITZ	49752	Jessenitz	1
11.36676	53.27885	122862	GLAISIN	49767	Glaisin	1
11.62817	53.26261	124488	NEESE	49778	Neese	1
11.86397	53.26081	120737	PAMPIN	49794	Pampin	1
16.27073	52.09524	376020	TARNOWA	4980	Tarnowa	1
12.17074	53.26531	121002	GRABOW	49802	Grabow	1
9.42586	53.365	112123	WANGERSEN	49813	Wangersen	1
9.64625	53.379	106002	REGESBOSTEL	49821	Regesbostel	1
9.92661	53.40705	105969	TￃﾖTENSEN	49828	Tötensen	1
10.22923	53.38859	116893	LASSRￃﾖNNE	49840	Lassrönne	1
10.50596	53.41658	117662	JULIUSBURG	49857	Juliusburg	1
11.08244	53.41108	118676	SETZIN	49881	Setzin	1
11.60438	53.39799	118349	NEUHOF	49898	Neuhof	1
10.74685	53.43177	121965	GRESSE	50010	Gresse	1
11.30189	53.42238	125796	MORAAS	50027	Moraas	1
11.93249	53.42748	125020	PAARSCH	50058	Paarsch	1
12.17807	53.46472	120236	BARKOW	50068	Barkow	1
9.38434	53.5502	115523	SCHWINGE	50073	Schwinge	1
9.652825404	53.56253675	547428	WISCH	50087	Wisch	1
9.92842	53.5542	108945	OTTENSEN	50117	Ottensen	1
10.20487	53.56222	117299	WILLINGHUSEN	50130	Willinghusen	1
10.47132	53.57846	111898	BASTHORST	50142	Basthorst	1
18.60845	54.00516	375290	SZPEGAWSK	503	Szpegawsk	1
15.50045	52.27172	386488	LUGOW	5031	Lugow	1
10.75137	53.59484	108491	LEHMRADE	50321	Lehmrade	1
11.04085	53.58655	121437	DRￃﾖNNEWITZ	50332	Drönnewitz	1
11.32365	53.59528	118265	GROSS ROGAHN	50343	Gross Rogahn	1
11.60408	53.616	118438	KLADOW	50357	Kladow	1
11.88883	53.63207	125383	HOHEN PRITZ	50365	Hohen Pritz	1
12.14767	53.62344	126689	JELLEN	50377	Jellen	1
12.36951	53.73311	127267	LￃﾜBSEE	50385	Lübsee	1
14.11661	53.73703	118609	BELLIN	50471	Bellin	1
12.72318	53.77769	121628	RETZOW	50523	Retzow	1
13.02051	53.78904	120727	HOHENBOLLENTIN	50538	Hohenbollentin	1
13.27783	53.79124	125333	GOLCHEN	50552	Golchen	1
16.29936	52.27187	161276	BIALA WIES	5056	Biala Wies	1
13.56356	53.78446	124192	STRIPPOW	50567	Strippow	1
13.80867	53.8054	118365	ROSENHAGEN	50575	Rosenhagen	1
14.66308	53.79171	151010	SINIECHOWO	50583	Siniechowo	1
14.96696	53.79514	148265	DRZEWICA	50604	Drzewica	1
15.24598	53.77514	149542	LISOWO	50622	Lisowo	1
14.43155	53.8679	375890	LUBIN	50719	Lubin	1
12.44997	53.95967	124729	GROSS RIDSENOW	50765	Gross Ridsenow	1
12.73722	53.94228	126948	SCHLUTOW	50779	Schlutow	1
13.01298	53.95466	123272	SEEDORF	50794	Seedorf	1
13.27277	53.94539	122839	BENTZIN	50805	Bentzin	1
13.52648	53.95007	119758	RANZIN	50818	Ranzin	1
13.84379	53.94673	121706	LASSAN	50830	Lassan	1
14.11814	53.94992	119402	SALLENTHIN	50840	Sallenthin	1
14.44888	53.92636	372827	MIEDZYZDROJE	50844	Miedzyzdroje	1
14.68184	53.94979	166218	SIEROSLAW	50850	Sieroslaw	1
14.96722	53.94149	160805	BEDZIESZEWO	50872	Bedzieszewo	1
15.25298	53.95664	152451	SKALIN	50892	Skalin	1
16.06838	52.22589	371330	BORUJA	5091	Boruja	1
14.00155	54.05033	121439	KOSEROW	50973	Koserow	1
14.99104	54.0761	375421	TRZESACZ	50986	Trzesacz	1
16.37426376	53.74533931	535428	BAERWALDE	51	Baerwalde	1
12.42509	53.61075	124127	HOHEN WANGELIN	51012	Hohen Wangelin	1
12.76144	53.62274	126691	RITTERMANNSHAGEN	51030	Rittermannshagen	1
13.02205	53.61154	125926	TARNOW	51048	Tarnow	1
13.29078	53.6072	119736	TROLLENHAGEN	51065	Trollenhagen	1
13.59619	53.60763	122300	BROHM	51081	Brohm	1
13.85179	53.63346	122516	EICHHOF	51089	Eichhof	1
14.22326	53.63391	124389	GEGENSEE	51098	Gegensee	1
18.96931	54.01376	149312	KRASNIEWO	511	Krasniewo	1
14.4674	53.62998	370671	DROGORADZ	51101	Drogoradz	1
14.68877	53.61758	151848	BUDZIEN	51112	Budzien	1
14.96392	53.60041	148666	KRZYWICE	51123	Krzywice	1
15.24763056	53.60343749	534969	PLANTIKOW	51135	Plantikow	1
13.11085	54.58538	123952	KLOSTER	51143	Kloster	1
13.28792	54.62108	123059	WIEK	51146	Wiek	1
13.56522303	54.57388681	534486	NARDEVITZ	51162	Nardevitz	1
12.68295	54.43348	121702	ZINGST	51170	Zingst	1
12.98011	54.42297	121774	WENDISCH LANGENDORF	51173	Wendisch Langendorf	1
13.27661545	54.44308095	534484	WￃﾜSTENEI	51179	Wüstenei	1
13.5274187	54.48608929	534498	SAISER	51188	Saiser	1
12.41813	54.37908	123911	AHRENSHOOP	51191	Ahrenshoop	1
15.49407	52.46538	386879	GORZYCA	5122	Gorzyca	1
13.62026447	54.341066	534456	NEU-REDDEVITZ	51232	Neu-Reddevitz	1
12.46549	54.29792	121141	LANGENDAMM	51243	Langendamm	1
12.73823	54.29537	120295	REDEBAS	51257	Redebas	1
12.9835	54.29259	119600	PￃﾜTTE	51267	Pütte	1
13.27492	54.29783	119890	POSERITZ	51277	Poseritz	1
13.71408	54.27487	125431	THIESSOW	51288	Thiessow	1
15.73422	52.43536	364952	RANSKO	5130	Ransko	1
12.43765	54.09324	126602	REPPELIN	51346	Reppelin	1
12.70461	54.13797	119845	KAVELSDORF	51355	Kavelsdorf	1
12.99069	54.12609	124930	MￃﾜGGENWALDE	51370	Müggenwalde	1
13.30351	54.11602	121011	STEFFENSHAGEN	51387	Steffenshagen	1
16.0794131	52.42180477	371464	GRUDNA	5139	Grudna	1
13.57063	54.11847	121289	VIEROW	51397	Vierow	1
13.83497	54.11263	117776	KARLSHAGEN	51409	Karlshagen	1
